{
  "gyms": {
    "331be88670224449b59f2dfe408d227c.16": {
      "guid": "331be88670224449b59f2dfe408d227c.16",
      "lat": 48.14662,
      "lng": 17.101531,
      "name": "Major Oto Smik Memorial"
    },
    "0597e758c6cb4f83a88b8a48fd810837.16": {
      "guid": "0597e758c6cb4f83a88b8a48fd810837.16",
      "lat": 48.144479,
      "lng": 17.09917,
      "name": "Pomnik Padlym Hrdinom"
    },
    "d6aff76cd0924a30a6d7e70cb88552ad.12": {
      "guid": "d6aff76cd0924a30a6d7e70cb88552ad.12",
      "lat": 48.129892,
      "lng": 17.100155,
      "name": "Cirkus"
    },
    "5dcf8636fe584f3ba6cba0848ca518a1.16": {
      "guid": "5dcf8636fe584f3ba6cba0848ca518a1.16",
      "lat": 48.12634,
      "lng": 17.110374,
      "name": "Girls Girls Girls"
    },
    "1737f98b755d43da915268ebe1e86c6b.16": {
      "guid": "1737f98b755d43da915268ebe1e86c6b.16",
      "lat": 48.128958,
      "lng": 17.093055,
      "name": "Rimske Slnecne Hodiny"
    },
    "000db26df7504c7cb456e93c059817ea.16": {
      "guid": "000db26df7504c7cb456e93c059817ea.16",
      "lat": 48.128351,
      "lng": 17.110748,
      "name": "Skinny Woman"
    },
    "0eeae0d2a7f144e9bd6b7c9125edfc69.12": {
      "guid": "0eeae0d2a7f144e9bd6b7c9125edfc69.12",
      "lat": 48.123037,
      "lng": 17.099196,
      "name": "Petržalská brána",
      "isEx": true,
      "medal": "None"
    },
    "36f9644a8cf741388cd894a6977951be.16": {
      "guid": "36f9644a8cf741388cd894a6977951be.16",
      "lat": 48.121755,
      "lng": 17.098497,
      "name": "Railway Station Petrzalka"
    },
    "346286d44fcd4632a95fbbe51dfa6fa8.16": {
      "guid": "346286d44fcd4632a95fbbe51dfa6fa8.16",
      "lat": 48.121943,
      "lng": 17.105903,
      "name": "Raketa"
    },
    "8ccdf2b05e914c33a9df3eb2e7c7d80f.11": {
      "guid": "8ccdf2b05e914c33a9df3eb2e7c7d80f.11",
      "lat": 48.120215,
      "lng": 17.105415,
      "name": "Skalka",
      "isEx": true
    },
    "32bacca8c0ba44bca245256854e0be82.16": {
      "guid": "32bacca8c0ba44bca245256854e0be82.16",
      "lat": 48.116708,
      "lng": 17.106089,
      "name": "Kaspian",
      "isEx": true
    },
    "8c71a870387f472f92345c51d34c9ed0.11": {
      "guid": "8c71a870387f472f92345c51d34c9ed0.11",
      "lat": 48.116882,
      "lng": 17.104951,
      "name": "Petrzalka Centroid",
      "isEx": true
    },
    "7df327e21c334816932a1dd602b4084b.12": {
      "guid": "7df327e21c334816932a1dd602b4084b.12",
      "lat": 48.11839,
      "lng": 17.115547,
      "name": "Rodina",
      "isEx": true
    },
    "f69f0901e4ee414f8507da38b4efa7f0.16": {
      "guid": "f69f0901e4ee414f8507da38b4efa7f0.16",
      "lat": 48.116292,
      "lng": 17.101524,
      "name": "Zdravotne stredisko/Health Centre",
      "isEx": true
    },
    "00e7295763794012b4aedc3de16eb7b2.16": {
      "guid": "00e7295763794012b4aedc3de16eb7b2.16",
      "lat": 48.117397,
      "lng": 17.110305,
      "name": "Malba: Zena s Holubicami"
    },
    "0c729b11d5624b54b4d039a59e0f2c56.16": {
      "guid": "0c729b11d5624b54b4d039a59e0f2c56.16",
      "lat": 48.119299,
      "lng": 17.115015,
      "name": "Graffiti Castle",
      "isEx": true
    },
    "a374253c57fd412ebff56c2da971cd2c.16": {
      "guid": "a374253c57fd412ebff56c2da971cd2c.16",
      "lat": 48.123598,
      "lng": 17.108598,
      "name": "WTF"
    },
    "ef68836fab8e4fb499a5144acf01b197.16": {
      "guid": "ef68836fab8e4fb499a5144acf01b197.16",
      "lat": 48.134429,
      "lng": 17.105568,
      "name": "Aupark Tower"
    },
    "666fe44148ba498f9b7567a1c1e4a01f.16": {
      "guid": "666fe44148ba498f9b7567a1c1e4a01f.16",
      "lat": 48.13693,
      "lng": 17.10483,
      "name": "UFO"
    },
    "6e27157c8f5c453ca7be64cd3df2b992.11": {
      "guid": "6e27157c8f5c453ca7be64cd3df2b992.11",
      "lat": 48.136542,
      "lng": 17.114445,
      "name": "Daniel Tupy Memorial"
    },
    "ba4192fe58d94c09a36d40ab0f0f76a1.16": {
      "guid": "ba4192fe58d94c09a36d40ab0f0f76a1.16",
      "lat": 48.136112,
      "lng": 17.113825,
      "name": "Divadlo Aréna"
    },
    "4b8d521e5d30472090fea1439a0e3f98.16": {
      "guid": "4b8d521e5d30472090fea1439a0e3f98.16",
      "lat": 48.133537,
      "lng": 17.1116,
      "name": "Fontána Pijúce holubice",
      "isEx": true
    },
    "3c1606e2ea7641a4925ceef82987da28.11": {
      "guid": "3c1606e2ea7641a4925ceef82987da28.11",
      "lat": 48.134043,
      "lng": 17.113937,
      "name": "Gotická veža - sad JK",
      "isEx": true
    },
    "598ba78b72e2465c9036bb7a864539be.11": {
      "guid": "598ba78b72e2465c9036bb7a864539be.11",
      "lat": 48.135379,
      "lng": 17.109313,
      "name": "Socha Janka Kráľa",
      "isEx": true
    },
    "137ba924c03f4d959960f26bdb810718.16": {
      "guid": "137ba924c03f4d959960f26bdb810718.16",
      "lat": 48.136755,
      "lng": 17.102208,
      "name": "Kotva"
    },
    "3998a0e98054461dac1c3c7ae9a9b366.16": {
      "guid": "3998a0e98054461dac1c3c7ae9a9b366.16",
      "lat": 48.135315,
      "lng": 17.108636,
      "name": "Vahy (Libra)"
    },
    "f70c8dad18684db7ab45f3d3ecd63e77.12": {
      "guid": "f70c8dad18684db7ab45f3d3ecd63e77.12",
      "lat": 48.127359,
      "lng": 17.114388,
      "name": "Klub mladej rodiny"
    },
    "3865a3f8e8354a8d844c41cc45ffb5c2.16": {
      "guid": "3865a3f8e8354a8d844c41cc45ffb5c2.16",
      "lat": 48.125698,
      "lng": 17.111389,
      "name": "Graffiti - Tom & Jerry"
    },
    "3b949fca94b34ee285a62885c86248a9.16": {
      "guid": "3b949fca94b34ee285a62885c86248a9.16",
      "lat": 48.126665,
      "lng": 17.124212,
      "name": "Pekaren Kvasok"
    },
    "10e14b86ca3544989fa3799761a78318.11": {
      "guid": "10e14b86ca3544989fa3799761a78318.11",
      "lat": 48.1276,
      "lng": 17.072066,
      "name": "Bunker B-S-4 Lany",
      "isEx": true
    },
    "7b31f97560c04978864e9fc74929055a.16": {
      "guid": "7b31f97560c04978864e9fc74929055a.16",
      "lat": 48.132386,
      "lng": 17.116407,
      "name": "Diamond"
    },
    "ad914339617d455da652078472cbc05d.16": {
      "guid": "ad914339617d455da652078472cbc05d.16",
      "lat": 48.124011,
      "lng": 17.111375,
      "name": "Amorphous Dice"
    },
    "21d933afc84845d9b55181995ad13d6c.16": {
      "guid": "21d933afc84845d9b55181995ad13d6c.16",
      "lat": 48.130232,
      "lng": 17.123748,
      "name": "Jolly Joker"
    },
    "83c448c355904028aa399ca831079245.16": {
      "guid": "83c448c355904028aa399ca831079245.16",
      "lat": 48.128116,
      "lng": 17.121344,
      "name": "Železná Vŕba"
    },
    "fdd85b7364e94674856f490a42f675e8.16": {
      "guid": "fdd85b7364e94674856f490a42f675e8.16",
      "lat": 48.124738,
      "lng": 17.111825,
      "name": "Patriot Mojho Zivota"
    },
    "08ccbeff5eca4d0880bb01aaa756bde6.16": {
      "guid": "08ccbeff5eca4d0880bb01aaa756bde6.16",
      "lat": 48.128791,
      "lng": 17.125251,
      "name": "Graffiti Sea Animals"
    },
    "316b401dc49f49acb5a10415ea729253.12": {
      "guid": "316b401dc49f49acb5a10415ea729253.12",
      "lat": 48.129522,
      "lng": 17.130855,
      "name": "Slnečné hodiny"
    },
    "2090f2510a7e4cbf901241d68410ed93.16": {
      "guid": "2090f2510a7e4cbf901241d68410ed93.16",
      "lat": 48.130334,
      "lng": 17.135018,
      "name": "Cossack"
    },
    "f57920e47b584228bd63386831797e37.16": {
      "guid": "f57920e47b584228bd63386831797e37.16",
      "lat": 48.125785,
      "lng": 17.132894,
      "name": "Prof. Jur Hronec"
    },
    "6b2f18c067d442d584a6b6c35ca40570.11": {
      "guid": "6b2f18c067d442d584a6b6c35ca40570.11",
      "lat": 48.126005,
      "lng": 17.128293,
      "name": "Judr. Ján Bulík",
      "isEx": true
    },
    "922cd9d9574e431c83fe12934f19c914.16": {
      "guid": "922cd9d9574e431c83fe12934f19c914.16",
      "lat": 48.125439,
      "lng": 17.125452,
      "name": "Eisenkreutz"
    },
    "da76b289b7f249dab2a796f517712176.16": {
      "guid": "da76b289b7f249dab2a796f517712176.16",
      "lat": 48.124255,
      "lng": 17.126412,
      "name": "Outdoor Fitness Pankúchova"
    },
    "3d7d6b52c864451f92471f35dbc76384.16": {
      "guid": "3d7d6b52c864451f92471f35dbc76384.16",
      "lat": 48.122262,
      "lng": 17.127504,
      "name": "Tenis",
      "isEx": true
    },
    "c4f8121a63a8443bb90904bc6e046ba0.16": {
      "guid": "c4f8121a63a8443bb90904bc6e046ba0.16",
      "lat": 48.120201,
      "lng": 17.131147,
      "name": "DK Ovsište"
    },
    "0b52d346b83a4675968ea0107d75d3f4.11": {
      "guid": "0b52d346b83a4675968ea0107d75d3f4.11",
      "lat": 48.120843,
      "lng": 17.132519,
      "name": "Socha Oheň"
    },
    "88f5697a31044cf7bce63feea8b75f5c.16": {
      "guid": "88f5697a31044cf7bce63feea8b75f5c.16",
      "lat": 48.126307,
      "lng": 17.123342,
      "name": "Post Office 55 Petržalka "
    },
    "9739c065fd4e46a283c46c4d44b8f51a.16": {
      "guid": "9739c065fd4e46a283c46c4d44b8f51a.16",
      "lat": 48.11905,
      "lng": 17.121472,
      "name": "Konska Podkova"
    },
    "5b9748c3f8674d23862de0e332ec7e20.16": {
      "guid": "5b9748c3f8674d23862de0e332ec7e20.16",
      "lat": 48.122921,
      "lng": 17.121698,
      "name": "Happy Life Relief"
    },
    "e2ba20e3634b4087b246fdb2e344321c.16": {
      "guid": "e2ba20e3634b4087b246fdb2e344321c.16",
      "lat": 48.121664,
      "lng": 17.119322,
      "name": "Zena S Dietatom"
    },
    "1790f102ade84615aa05538c034dc273.16": {
      "guid": "1790f102ade84615aa05538c034dc273.16",
      "lat": 48.115807,
      "lng": 17.119475,
      "name": "Black Tree II"
    },
    "f2dd5493f89e4dfeb75bf32885622eb4.16": {
      "guid": "f2dd5493f89e4dfeb75bf32885622eb4.16",
      "lat": 48.111504,
      "lng": 17.099225,
      "name": "Petržalská tržnica"
    },
    "c6951cfc98174daa94b7ab3246db5be4.12": {
      "guid": "c6951cfc98174daa94b7ab3246db5be4.12",
      "lat": 48.11279,
      "lng": 17.10159,
      "name": "Touch of the Sun Statue"
    },
    "5df540c78aa34fde9a3da35578cd1e01.16": {
      "guid": "5df540c78aa34fde9a3da35578cd1e01.16",
      "lat": 48.109055,
      "lng": 17.099287,
      "name": "Bytové Družstvo Petržalka",
      "isEx": true
    },
    "0ff8c962719b4b389d305b45d7d407d3.11": {
      "guid": "0ff8c962719b4b389d305b45d7d407d3.11",
      "lat": 48.11021,
      "lng": 17.102603,
      "name": "panelakova ZOO"
    },
    "4456650502084f06843512f7030605b8.16": {
      "guid": "4456650502084f06843512f7030605b8.16",
      "lat": 48.114242,
      "lng": 17.111352,
      "name": "Smile"
    },
    "61d92fa15b124cdf849fbc89b77528f7.11": {
      "guid": "61d92fa15b124cdf849fbc89b77528f7.11",
      "lat": 48.111001,
      "lng": 17.110969,
      "name": "Hudobná Fontána"
    },
    "f412c74c31ad48b48ca9283f2900e49c.11": {
      "guid": "f412c74c31ad48b48ca9283f2900e49c.11",
      "lat": 48.109812,
      "lng": 17.112009,
      "name": "Housewives"
    },
    "97a8aaec9a694e2e8448f3cffb1b23e0.11": {
      "guid": "97a8aaec9a694e2e8448f3cffb1b23e0.11",
      "lat": 48.112652,
      "lng": 17.107041,
      "name": "Christian Church of Holy Family",
      "isEx": true
    },
    "9d405f90fd4b4f96ab560b49085a239a.16": {
      "guid": "9d405f90fd4b4f96ab560b49085a239a.16",
      "lat": 48.112605,
      "lng": 17.106326,
      "name": "Kriz Sv. Jana Pavla II. ",
      "isEx": true
    },
    "1083a45e93f54e2795b688ba72e069e8.16": {
      "guid": "1083a45e93f54e2795b688ba72e069e8.16",
      "lat": 48.111028,
      "lng": 17.127031,
      "name": "Rancik"
    },
    "20a41e27163940d1af6c18119c9826d0.16": {
      "guid": "20a41e27163940d1af6c18119c9826d0.16",
      "lat": 48.107633,
      "lng": 17.11,
      "name": "Fish Relief"
    },
    "f65e690b5940467d9691b6154e98a4c4.16": {
      "guid": "f65e690b5940467d9691b6154e98a4c4.16",
      "lat": 48.108668,
      "lng": 17.107175,
      "name": "Lunapark"
    },
    "97470e7b9d914a97979c7034d3658085.16": {
      "guid": "97470e7b9d914a97979c7034d3658085.16",
      "lat": 48.108621,
      "lng": 17.116813,
      "name": "Les nie je smetisko"
    },
    "04b4d425fefd43789a5f758cd05fcdd4.16": {
      "guid": "04b4d425fefd43789a5f758cd05fcdd4.16",
      "lat": 48.105372,
      "lng": 17.107005,
      "name": "Medical Graffiti",
      "isEx": true
    },
    "ea250ea7666340959e849de24909e12a.11": {
      "guid": "ea250ea7666340959e849de24909e12a.11",
      "lat": 48.101594,
      "lng": 17.102433,
      "name": "Pani s Holubicou",
      "isEx": true
    },
    "30a9ce7d610b460286ae4cf1bdf39ee7.16": {
      "guid": "30a9ce7d610b460286ae4cf1bdf39ee7.16",
      "lat": 48.104127,
      "lng": 17.104952,
      "name": "Evanjelicky Kostol"
    },
    "59e9ee88dc604a128b73384805b03012.11": {
      "guid": "59e9ee88dc604a128b73384805b03012.11",
      "lat": 48.101126,
      "lng": 17.100663,
      "name": "NBÚ"
    },
    "6d6ef79e83db4d25bc5681e12a2c753b.16": {
      "guid": "6d6ef79e83db4d25bc5681e12a2c753b.16",
      "lat": 48.097358,
      "lng": 17.101761,
      "name": "Pegas"
    },
    "8744c0da8abb4520be870e5ff95dfc71.16": {
      "guid": "8744c0da8abb4520be870e5ff95dfc71.16",
      "lat": 48.09737,
      "lng": 17.106365,
      "name": "Betonove Divadlo"
    },
    "e2e7815125c8416e9cd5908d38208782.11": {
      "guid": "e2e7815125c8416e9cd5908d38208782.11",
      "lat": 48.098946,
      "lng": 17.11165,
      "name": "Sväté misie"
    },
    "67ac197276d849929d90fffe7c58db40.11": {
      "guid": "67ac197276d849929d90fffe7c58db40.11",
      "lat": 48.100603,
      "lng": 17.117187,
      "name": "Fontána pri nemocnici"
    },
    "afc45912d7a843a89b04b4474fb212ab.16": {
      "guid": "afc45912d7a843a89b04b4474fb212ab.16",
      "lat": 48.097205,
      "lng": 17.111779,
      "name": "Graffiti Smoker"
    },
    "16226480a6d14c75a7c3a3589e527740.11": {
      "guid": "16226480a6d14c75a7c3a3589e527740.11",
      "lat": 48.09825,
      "lng": 17.115847,
      "name": "Kamenná pani"
    },
    "9d4d3ef55feb427f93e4d856d4327920.16": {
      "guid": "9d4d3ef55feb427f93e4d856d4327920.16",
      "lat": 48.099657,
      "lng": 17.123405,
      "name": "Bunker B-S-13 Stoh"
    },
    "f7a7b9344f5747c1abae54eef1ca67dd.16": {
      "guid": "f7a7b9344f5747c1abae54eef1ca67dd.16",
      "lat": 48.107921,
      "lng": 17.081469,
      "name": "Bunker BS-8"
    },
    "3bc95d04dd6e4cac99c4a54930da44f2.16": {
      "guid": "3bc95d04dd6e4cac99c4a54930da44f2.16",
      "lat": 48.102578,
      "lng": 17.083338,
      "name": "Übersicht Kittsee"
    },
    "d2a80e78d37f4297ac7a4b35347e8e85.16": {
      "guid": "d2a80e78d37f4297ac7a4b35347e8e85.16",
      "lat": 48.140553,
      "lng": 17.129416,
      "name": "Mozaika Tvare"
    },
    "b4516632ca1b4f329a515e7d426fa985.16": {
      "guid": "b4516632ca1b4f329a515e7d426fa985.16",
      "lat": 48.140057,
      "lng": 17.123075,
      "name": "Chlapec A Zrkadlo"
    },
    "67bdaf825f6a44a4829634ea14a1c187.11": {
      "guid": "67bdaf825f6a44a4829634ea14a1c187.11",
      "lat": 48.128118,
      "lng": 17.099132,
      "name": "Church of Holy Cross"
    },
    "ad6b2d26b4fa4b1dbf32f8c3a1ad23a3.12": {
      "guid": "ad6b2d26b4fa4b1dbf32f8c3a1ad23a3.12",
      "lat": 48.139725,
      "lng": 17.108699,
      "name": "P.M. Bohúň",
      "isEx": true
    },
    "4bb33e502e2249b6b2957567bd4061af.12": {
      "guid": "4bb33e502e2249b6b2957567bd4061af.12",
      "lat": 48.140921,
      "lng": 17.106092,
      "name": "Dievča so srnkou"
    },
    "0dd99804aff54fca9c80955dabf47ef3.16": {
      "guid": "0dd99804aff54fca9c80955dabf47ef3.16",
      "lat": 48.141277,
      "lng": 17.104805,
      "name": "Synagogue Memorial"
    },
    "10aab7fe19fc4e8699a67598f884a1b7.12": {
      "guid": "10aab7fe19fc4e8699a67598f884a1b7.12",
      "lat": 48.141607,
      "lng": 17.100306,
      "name": "Bratislavský hrad"
    },
    "a67ca229679f463aa3b1d8cf65d3e189.16": {
      "guid": "a67ca229679f463aa3b1d8cf65d3e189.16",
      "lat": 48.141981,
      "lng": 17.098157,
      "name": "Národná rada SR"
    },
    "9a972e61d80045ce891b2bac69350ea6.16": {
      "guid": "9a972e61d80045ce891b2bac69350ea6.16",
      "lat": 48.139738,
      "lng": 17.101405,
      "name": "Mikuláš Moyzes"
    },
    "a9f84952a518408d9078eb9d6a661f7a.16": {
      "guid": "a9f84952a518408d9078eb9d6a661f7a.16",
      "lat": 48.140632,
      "lng": 17.09314,
      "name": "Svedectvo priateľstva medzi Slovenskom a Cyprom",
      "isEx": true
    },
    "529c13d2311d464c9f005aab877464bd.11": {
      "guid": "529c13d2311d464c9f005aab877464bd.11",
      "lat": 48.141205,
      "lng": 17.090007,
      "name": "kolesa"
    },
    "01e492c60ff54cfb866293901d07f529.11": {
      "guid": "01e492c60ff54cfb866293901d07f529.11",
      "lat": 48.141197,
      "lng": 17.089723,
      "name": "Lion Sculpture"
    },
    "dcb5c52c05c24250b6221d581f9a3f9b.16": {
      "guid": "dcb5c52c05c24250b6221d581f9a3f9b.16",
      "lat": 48.12463,
      "lng": 17.091517,
      "name": "Outdoor Fitness Vranovska"
    },
    "b8477eb6895d4c3b9ed0a3febfe942be.16": {
      "guid": "b8477eb6895d4c3b9ed0a3febfe942be.16",
      "lat": 48.122488,
      "lng": 17.122781,
      "name": "Detske Ihrisko Haanova",
      "isEx": true
    },
    "947f380ad39d402da286bf8fedae6123.12": {
      "guid": "947f380ad39d402da286bf8fedae6123.12",
      "lat": 48.140924,
      "lng": 17.123362,
      "name": "Fontána Tanečnica"
    },
    "642e4e804e2049edb3b5cf2784e4e6ab.12": {
      "guid": "642e4e804e2049edb3b5cf2784e4e6ab.12",
      "lat": 48.120964,
      "lng": 17.100282,
      "name": "Electric box"
    },
    "c76144f623dc4652b5912d66fcd531b6.16": {
      "guid": "c76144f623dc4652b5912d66fcd531b6.16",
      "lat": 48.14126,
      "lng": 17.116012,
      "name": "Univerzita Komenskeho"
    },
    "a677ac6f4d8f43259ff9ca381e5302ef.16": {
      "guid": "a677ac6f4d8f43259ff9ca381e5302ef.16",
      "lat": 48.128405,
      "lng": 17.095953,
      "name": "Ihrisko na Kapicovej"
    },
    "beee1b485b05423cb5aef3c8a07241d0.16": {
      "guid": "beee1b485b05423cb5aef3c8a07241d0.16",
      "lat": 48.088352,
      "lng": 17.126144,
      "name": "Ai Neko"
    },
    "0a7a1cd0bf544915870e009b096cb579.16": {
      "guid": "0a7a1cd0bf544915870e009b096cb579.16",
      "lat": 48.09317,
      "lng": 17.117177,
      "name": "Playground A1"
    },
    "fd88f7190d3946698067b75f59ecd3ee.16": {
      "guid": "fd88f7190d3946698067b75f59ecd3ee.16",
      "lat": 48.086711,
      "lng": 17.126419,
      "name": "multifunkcne ihrisko"
    },
    "099728f4ec4a4983b1cba832befad6b0.16": {
      "guid": "099728f4ec4a4983b1cba832befad6b0.16",
      "lat": 48.127272,
      "lng": 17.098187,
      "name": "Animal Grafitti"
    },
    "8e591f2f82e0497f8aab4a1f8ab273b9.16": {
      "guid": "8e591f2f82e0497f8aab4a1f8ab273b9.16",
      "lat": 48.317468,
      "lng": 18.518564,
      "name": "Jezis Kristus Kozarovc"
    },
    "4985f1cb051a4ad28d2796b1c1f2831f.16": {
      "guid": "4985f1cb051a4ad28d2796b1c1f2831f.16",
      "lat": 48.319423,
      "lng": 18.524929,
      "name": "Socha Panny Marie"
    },
    "629de4bd269f49af83919e6602808565.16": {
      "guid": "629de4bd269f49af83919e6602808565.16",
      "lat": 48.13069,
      "lng": 17.067895,
      "name": "Bunker B-S-3 Paseka"
    },
    "9f0dd5e279de4344a6e4508e88e3faee.16": {
      "guid": "9f0dd5e279de4344a6e4508e88e3faee.16",
      "lat": 48.37708,
      "lng": 18.598454,
      "name": "Orovnica - Pomnik Obetiam 2.sv. vojny"
    },
    "33e17cf0c0b345d7afe9da6252b9fd65.16": {
      "guid": "33e17cf0c0b345d7afe9da6252b9fd65.16",
      "lat": 48.141706,
      "lng": 17.064763,
      "name": "Bunker V Dzungli"
    },
    "57d3819c73c743cbbedbe2e5e723c2e9.16": {
      "guid": "57d3819c73c743cbbedbe2e5e723c2e9.16",
      "lat": 48.166379,
      "lng": 17.138171,
      "name": "Plaváreň Pasienky"
    },
    "6d96423ec8374d299e4a57fc56477d75.16": {
      "guid": "6d96423ec8374d299e4a57fc56477d75.16",
      "lat": 48.16795,
      "lng": 17.138349,
      "name": "Fontana Pred Polusom"
    },
    "a044da9f82334214a461fc7d19c525fd.16": {
      "guid": "a044da9f82334214a461fc7d19c525fd.16",
      "lat": 48.168224,
      "lng": 17.138376,
      "name": "VIVO - formerly Polus City Center"
    },
    "ca5a802b31404ba1bcaf900f3fa48505.11": {
      "guid": "ca5a802b31404ba1bcaf900f3fa48505.11",
      "lat": 48.169759,
      "lng": 17.134302,
      "name": "Technická fontána",
      "isEx": true
    },
    "239e30e03bb142bcb5ea7f3ce03c8b8a.16": {
      "guid": "239e30e03bb142bcb5ea7f3ce03c8b8a.16",
      "lat": 48.173041,
      "lng": 17.1339,
      "name": "Playground Brezovska",
      "isEx": true
    },
    "65ad36347d494ee49d6a4a17f3ee5a15.16": {
      "guid": "65ad36347d494ee49d6a4a17f3ee5a15.16",
      "lat": 48.175987,
      "lng": 17.145633,
      "name": "Biela teniska"
    },
    "cf0dd8ece64d4d828a727f6d455b0e4f.11": {
      "guid": "cf0dd8ece64d4d828a727f6d455b0e4f.11",
      "lat": 48.172375,
      "lng": 17.14293,
      "name": "Glasstree"
    },
    "2795de292eac4a36808f1a3ed6241103.11": {
      "guid": "2795de292eac4a36808f1a3ed6241103.11",
      "lat": 48.169291,
      "lng": 17.142321,
      "name": "Strom Zivota",
      "isEx": true
    },
    "7a0099ce278145e69548f5a05ab45261.16": {
      "guid": "7a0099ce278145e69548f5a05ab45261.16",
      "lat": 48.170733,
      "lng": 17.147234,
      "name": "Slovenska Posta"
    },
    "e19b31bfc15543a4b0c67ef68778f9c2.16": {
      "guid": "e19b31bfc15543a4b0c67ef68778f9c2.16",
      "lat": 48.162121,
      "lng": 17.141607,
      "name": "Hant Arena Pasienky"
    },
    "189d0056d3754c20a79a65845fd3db9e.11": {
      "guid": "189d0056d3754c20a79a65845fd3db9e.11",
      "lat": 48.162554,
      "lng": 17.140151,
      "name": "Tri veze"
    },
    "883f8cd874514cafb3bd523a2bfd2599.16": {
      "guid": "883f8cd874514cafb3bd523a2bfd2599.16",
      "lat": 48.165319,
      "lng": 17.135224,
      "name": "Major Michal Pavlovic"
    },
    "186832edd5884a0aa58d5a11d685e107.16": {
      "guid": "186832edd5884a0aa58d5a11d685e107.16",
      "lat": 48.160572,
      "lng": 17.134757,
      "name": "Kupalisko Tehelne Pole"
    },
    "1a003183babf431084297fd404347704.16": {
      "guid": "1a003183babf431084297fd404347704.16",
      "lat": 48.16406,
      "lng": 17.130827,
      "name": "Little Free Library Tehelna",
      "isEx": true,
      "medal": "None"
    },
    "447edf67f1ef42c8a2bb5edde389a7d9.16": {
      "guid": "447edf67f1ef42c8a2bb5edde389a7d9.16",
      "lat": 48.161197,
      "lng": 17.125891,
      "name": "Hodiny Na Stanici"
    },
    "e331ef22fa62484b8b6e1b0b03f319fb.16": {
      "guid": "e331ef22fa62484b8b6e1b0b03f319fb.16",
      "lat": 48.159571,
      "lng": 17.12805,
      "name": "Fountain Atom"
    },
    "cabe222464134e658b354b5a6dc14eed.11": {
      "guid": "cabe222464134e658b354b5a6dc14eed.11",
      "lat": 48.158638,
      "lng": 17.127084,
      "name": "lstropoliske stlpy"
    },
    "0d7168548b9345cda49534e91c680cff.16": {
      "guid": "0d7168548b9345cda49534e91c680cff.16",
      "lat": 48.157455,
      "lng": 17.12862,
      "name": "Centralna Klubovna"
    },
    "de5b89ae69b943fc8ab8efa5acb9afec.16": {
      "guid": "de5b89ae69b943fc8ab8efa5acb9afec.16",
      "lat": 48.157847,
      "lng": 17.128125,
      "name": "Graffiti V Podchode"
    },
    "b6fbaaef45f047618db5f4fe1832cafa.11": {
      "guid": "b6fbaaef45f047618db5f4fe1832cafa.11",
      "lat": 48.169704,
      "lng": 17.129349,
      "name": "Fontána Kvet"
    },
    "bb190f8563954c199f17790edc08bb79.16": {
      "guid": "bb190f8563954c199f17790edc08bb79.16",
      "lat": 48.167973,
      "lng": 17.128662,
      "name": "Kukurica"
    },
    "6c8e0dc52ab1480c80ae0e74b5d4a87b.16": {
      "guid": "6c8e0dc52ab1480c80ae0e74b5d4a87b.16",
      "lat": 48.169371,
      "lng": 17.127032,
      "name": "Heat Sink"
    },
    "a462122ddabe4132b40edd4494a67b73.16": {
      "guid": "a462122ddabe4132b40edd4494a67b73.16",
      "lat": 48.173958,
      "lng": 17.125344,
      "name": "Dievcata"
    },
    "c9dba474a1cd4489b24b40b179b6cb19.16": {
      "guid": "c9dba474a1cd4489b24b40b179b6cb19.16",
      "lat": 48.16504,
      "lng": 17.124706,
      "name": "Zeny s priadzou"
    },
    "2bdd8909dc964567a71c2b1ec4a16d7c.16": {
      "guid": "2bdd8909dc964567a71c2b1ec4a16d7c.16",
      "lat": 48.162965,
      "lng": 17.119048,
      "name": "Kniznica Pionierska"
    },
    "473b98b2db824e43987288eac20a22e1.16": {
      "guid": "473b98b2db824e43987288eac20a22e1.16",
      "lat": 48.159184,
      "lng": 17.116266,
      "name": "Konzulat Jordanskeho Kralovstva"
    },
    "2e734ceae7fb435f82ab5d75e57cc6df.16": {
      "guid": "2e734ceae7fb435f82ab5d75e57cc6df.16",
      "lat": 48.162182,
      "lng": 17.119022,
      "name": "Indian"
    },
    "20d74867fb9a4e02b4b0d8fb85121f5f.16": {
      "guid": "20d74867fb9a4e02b4b0d8fb85121f5f.16",
      "lat": 48.160955,
      "lng": 17.118006,
      "name": "White Nymph"
    },
    "5d93b64f2d484493b704c965ac9824c7.16": {
      "guid": "5d93b64f2d484493b704c965ac9824c7.16",
      "lat": 48.159207,
      "lng": 17.118536,
      "name": "Slonik"
    },
    "3939f437819748af90b428412890972a.16": {
      "guid": "3939f437819748af90b428412890972a.16",
      "lat": 48.14284,
      "lng": 17.108894,
      "name": "Čumil"
    },
    "ffaa473d1afe418badd2fbacc25add65.11": {
      "guid": "ffaa473d1afe418badd2fbacc25add65.11",
      "lat": 48.145815,
      "lng": 17.109718,
      "name": "Námestie SNP"
    },
    "3ab021c9aec0468286b86a5e09489907.12": {
      "guid": "3ab021c9aec0468286b86a5e09489907.12",
      "lat": 48.142282,
      "lng": 17.109897,
      "name": "National Theatre"
    },
    "da31b8818cd946b28338b0d21b8590e3.16": {
      "guid": "da31b8818cd946b28338b0d21b8590e3.16",
      "lat": 48.141411,
      "lng": 17.11336,
      "name": "Marrol's Hotel"
    },
    "b61a06fffa4448c9af16562e17a5d693.16": {
      "guid": "b61a06fffa4448c9af16562e17a5d693.16",
      "lat": 48.143186,
      "lng": 17.106535,
      "name": "Masquerade"
    },
    "fd8e9eb7f12d450490988ebe3c7e38f4.16": {
      "guid": "fd8e9eb7f12d450490988ebe3c7e38f4.16",
      "lat": 48.143818,
      "lng": 17.106606,
      "name": "Korzo"
    },
    "e2ce8acc8ce245a492acb0d5b27c0954.12": {
      "guid": "e2ce8acc8ce245a492acb0d5b27c0954.12",
      "lat": 48.143768,
      "lng": 17.105296,
      "name": "Klarisky"
    },
    "9b5e5bedb080477b818964a5b1e915b0.16": {
      "guid": "9b5e5bedb080477b818964a5b1e915b0.16",
      "lat": 48.104697,
      "lng": 17.101252,
      "name": "Triangle & Circle Wall"
    },
    "e80612b9a1da4e4b9a36ca8e48e6ce20.16": {
      "guid": "e80612b9a1da4e4b9a36ca8e48e6ce20.16",
      "lat": 48.156191,
      "lng": 17.110834,
      "name": "Tree"
    },
    "1a2433b4a16d45c0b28a6c8f225db606.11": {
      "guid": "1a2433b4a16d45c0b28a6c8f225db606.11",
      "lat": 48.151144,
      "lng": 17.157906,
      "name": "Retro"
    },
    "39954a1807f142818a71b2aeb74542c9.12": {
      "guid": "39954a1807f142818a71b2aeb74542c9.12",
      "lat": 48.151346,
      "lng": 17.156766,
      "name": "Strom pred retrom",
      "isEx": true
    },
    "cbad7fcb917f41d199c0d0be6af8f28e.11": {
      "guid": "cbad7fcb917f41d199c0d0be6af8f28e.11",
      "lat": 48.152838,
      "lng": 17.164487,
      "name": "Kostol sv. Vincenta de Paul"
    },
    "605fc6cb618c4ef7b9e865e2179c21f7.11": {
      "guid": "605fc6cb618c4ef7b9e865e2179c21f7.11",
      "lat": 48.151195,
      "lng": 17.154363,
      "name": "Vlnky",
      "isEx": true
    },
    "3fbc9cc7550b4ffea3bd885c7b960d91.11": {
      "guid": "3fbc9cc7550b4ffea3bd885c7b960d91.11",
      "lat": 48.154664,
      "lng": 17.152855,
      "name": "Za Nemocnicou"
    },
    "13ffebece6214a1ea574ea97e78ba1af.11": {
      "guid": "13ffebece6214a1ea574ea97e78ba1af.11",
      "lat": 48.156582,
      "lng": 17.159363,
      "name": "Zavojova fontana",
      "isEx": true
    },
    "9a4c63f491124995b7b287bc0fd80045.11": {
      "guid": "9a4c63f491124995b7b287bc0fd80045.11",
      "lat": 48.156854,
      "lng": 17.160935,
      "name": "Karol Šmidke",
      "isEx": true
    },
    "d7e4469ea0fa43db8db543742fe1848c.11": {
      "guid": "d7e4469ea0fa43db8db543742fe1848c.11",
      "lat": 48.156539,
      "lng": 17.155805,
      "name": "Vejarova fontana",
      "isEx": true
    },
    "00380c5457134784b0aca69a4e3f796c.12": {
      "guid": "00380c5457134784b0aca69a4e3f796c.12",
      "lat": 48.15556,
      "lng": 17.151708,
      "name": "dievky"
    },
    "7c1d147d655c476b937c50b82c657f41.16": {
      "guid": "7c1d147d655c476b937c50b82c657f41.16",
      "lat": 48.147541,
      "lng": 17.147426,
      "name": "Mlyn"
    }
  },
  "pokestops": {
    "af15c658de13432eb8d312e140472c09.16": {
      "guid": "af15c658de13432eb8d312e140472c09.16",
      "lat": 48.144669,
      "lng": 17.104446,
      "name": "Szechényi István"
    },
    "353659f1452b499f91bc89ad06b92bd5.16": {
      "guid": "353659f1452b499f91bc89ad06b92bd5.16",
      "lat": 48.1297,
      "lng": 17.10569,
      "name": "Fontana"
    },
    "80123e160d384e4a99745114044bb83f.16": {
      "guid": "80123e160d384e4a99745114044bb83f.16",
      "lat": 48.130187,
      "lng": 17.100731,
      "name": "Detske ihrisko"
    },
    "d8f9d02cc2e04bf1a9aa55cacdae0ef4.11": {
      "guid": "d8f9d02cc2e04bf1a9aa55cacdae0ef4.11",
      "lat": 48.13044,
      "lng": 17.107001,
      "name": "Digital Park"
    },
    "938399d8b6d14ccc8c398de856856f03.16": {
      "guid": "938399d8b6d14ccc8c398de856856f03.16",
      "lat": 48.127525,
      "lng": 17.098352,
      "name": "Drevený Ihlan Preliezka"
    },
    "7ddb963e891f4e91bfffd8537eff9c1a.16": {
      "guid": "7ddb963e891f4e91bfffd8537eff9c1a.16",
      "lat": 48.130736,
      "lng": 17.107723,
      "name": "Fountain Digitalpark"
    },
    "1dfd18e7564f46b5a8148d35acaa5007.16": {
      "guid": "1dfd18e7564f46b5a8148d35acaa5007.16",
      "lat": 48.127489,
      "lng": 17.101135,
      "name": "Graffiti"
    },
    "656278eab42349398a11a82ceefbdd56.16": {
      "guid": "656278eab42349398a11a82ceefbdd56.16",
      "lat": 48.127557,
      "lng": 17.10559,
      "name": "Graffiti Head"
    },
    "c165b422c2cf4455a97ce3b5cc4b25e6.16": {
      "guid": "c165b422c2cf4455a97ce3b5cc4b25e6.16",
      "lat": 48.127621,
      "lng": 17.107501,
      "name": "Ihrisko Pifflova"
    },
    "ce673ef27d614bee927042ed3cb64b08.16": {
      "guid": "ce673ef27d614bee927042ed3cb64b08.16",
      "lat": 48.128954,
      "lng": 17.102681,
      "name": "Ihrisko Zadunajská Cesta 3"
    },
    "e4ec6882a48e4111ad3b752fcd2ed07d.16": {
      "guid": "e4ec6882a48e4111ad3b752fcd2ed07d.16",
      "lat": 48.127841,
      "lng": 17.09896,
      "name": "Jezis na kríži"
    },
    "1f930b6be493460fb591bdf93f1d5fb6.16": {
      "guid": "1f930b6be493460fb591bdf93f1d5fb6.16",
      "lat": 48.128097,
      "lng": 17.09849,
      "name": "Maria s Ježišom"
    },
    "17553a022a194a18b64390dd74de8c05.16": {
      "guid": "17553a022a194a18b64390dd74de8c05.16",
      "lat": 48.128471,
      "lng": 17.105303,
      "name": "Modra Zastavka"
    },
    "450f57734f1a494c91f4900bc4986109.11": {
      "guid": "450f57734f1a494c91f4900bc4986109.11",
      "lat": 48.129005,
      "lng": 17.100063,
      "name": "Moyses a Bernolák"
    },
    "824f11cf352d49eab941746d0d1a0de1.16": {
      "guid": "824f11cf352d49eab941746d0d1a0de1.16",
      "lat": 48.127578,
      "lng": 17.106313,
      "name": "Ocean"
    },
    "4ff2b5e29c5946fca3a18f6b082acf11.16": {
      "guid": "4ff2b5e29c5946fca3a18f6b082acf11.16",
      "lat": 48.129305,
      "lng": 17.09305,
      "name": "Soviet Army Memorial"
    },
    "dbc1aec749fe49b98535d3a07260801a.16": {
      "guid": "dbc1aec749fe49b98535d3a07260801a.16",
      "lat": 48.126358,
      "lng": 17.101227,
      "name": "Sprevádzať životom"
    },
    "99984542b8914fd191ae0c76b5318c1d.16": {
      "guid": "99984542b8914fd191ae0c76b5318c1d.16",
      "lat": 48.125972,
      "lng": 17.110993,
      "name": "Graffiti Cat"
    },
    "23ac91152975402185a19b6369406bde.16": {
      "guid": "23ac91152975402185a19b6369406bde.16",
      "lat": 48.124328,
      "lng": 17.094606,
      "name": "Misijný Dom Arnolda Jansena"
    },
    "0590d8b6927048f393ea7cf19e59e5d4.16": {
      "guid": "0590d8b6927048f393ea7cf19e59e5d4.16",
      "lat": 48.125342,
      "lng": 17.106682,
      "name": "Graffiti Snoopi"
    },
    "0c489461da8e4031b16e84db2b512af8.16": {
      "guid": "0c489461da8e4031b16e84db2b512af8.16",
      "lat": 48.118411,
      "lng": 17.107177,
      "name": "Detské Ihrisko Ševčenkova"
    },
    "b043f2d16cf043b484d2ac2d29e56500.16": {
      "guid": "b043f2d16cf043b484d2ac2d29e56500.16",
      "lat": 48.120002,
      "lng": 17.100006,
      "name": "Fou Zoo"
    },
    "d8fb377f120e465982a84559c74caf0b.16": {
      "guid": "d8fb377f120e465982a84559c74caf0b.16",
      "lat": 48.121504,
      "lng": 17.106168,
      "name": "Musical Graffiti"
    },
    "8033e52cae194a47b477d8832c643341.11": {
      "guid": "8033e52cae194a47b477d8832c643341.11",
      "lat": 48.121311,
      "lng": 17.10481,
      "name": "Socha Mieru"
    },
    "adfa214f4793479e8b10977aaddb1405.16": {
      "guid": "adfa214f4793479e8b10977aaddb1405.16",
      "lat": 48.121544,
      "lng": 17.104259,
      "name": "Buducnost"
    },
    "f27a47c44ac849628078798b1981daee.16": {
      "guid": "f27a47c44ac849628078798b1981daee.16",
      "lat": 48.119143,
      "lng": 17.107492,
      "name": "No Limits Park"
    },
    "41b0d8e1d8864b31b614900da3198f9c.16": {
      "guid": "41b0d8e1d8864b31b614900da3198f9c.16",
      "lat": 48.11635,
      "lng": 17.099805,
      "name": "Barth"
    },
    "de89cffd7564426f8c90604f248530d3.16": {
      "guid": "de89cffd7564426f8c90604f248530d3.16",
      "lat": 48.115373,
      "lng": 17.099068,
      "name": "Detský raj"
    },
    "b597da2a2eea44ac86256781fa9b3749.16": {
      "guid": "b597da2a2eea44ac86256781fa9b3749.16",
      "lat": 48.1155,
      "lng": 17.105562,
      "name": "Flip"
    },
    "bb7c8058324a411f84f53faae1a6c079.16": {
      "guid": "bb7c8058324a411f84f53faae1a6c079.16",
      "lat": 48.115646,
      "lng": 17.11435,
      "name": "Hojdací koník"
    },
    "c619707c7174416ea7ee0a3b68de1be2.16": {
      "guid": "c619707c7174416ea7ee0a3b68de1be2.16",
      "lat": 48.119668,
      "lng": 17.113113,
      "name": "Ihrisko Gessayova"
    },
    "beade051088d430197bf5944657eb4f9.16": {
      "guid": "beade051088d430197bf5944657eb4f9.16",
      "lat": 48.117931,
      "lng": 17.113123,
      "name": "Ihrisko Osuskeho"
    },
    "0f2bcb02cdee45ffb0468370e1888732.16": {
      "guid": "0f2bcb02cdee45ffb0468370e1888732.16",
      "lat": 48.11584,
      "lng": 17.114861,
      "name": "Library Ambroseho"
    },
    "f8b7657603c84c07b9144a7eb104f194.16": {
      "guid": "f8b7657603c84c07b9144a7eb104f194.16",
      "lat": 48.118078,
      "lng": 17.115751,
      "name": "Playground Osuského"
    },
    "80ae36a3b9b64edc872dbcf500f5203f.16": {
      "guid": "80ae36a3b9b64edc872dbcf500f5203f.16",
      "lat": 48.116299,
      "lng": 17.106156,
      "name": "Public Skatepark"
    },
    "426357f6fc0b4b2e8d4498031b3f6e0d.16": {
      "guid": "426357f6fc0b4b2e8d4498031b3f6e0d.16",
      "lat": 48.120553,
      "lng": 17.114507,
      "name": "Stĺpy"
    },
    "b887fc33156d4a0e9dbb7ddf63370f95.16": {
      "guid": "b887fc33156d4a0e9dbb7ddf63370f95.16",
      "lat": 48.117475,
      "lng": 17.110575,
      "name": "The Car"
    },
    "9f5cee7a8587477ab91ee1a76b2f232e.16": {
      "guid": "9f5cee7a8587477ab91ee1a76b2f232e.16",
      "lat": 48.116378,
      "lng": 17.102626,
      "name": "Pošta 52"
    },
    "0b19a2b93ffb4fa2811bbf58f840da58.11": {
      "guid": "0b19a2b93ffb4fa2811bbf58f840da58.11",
      "lat": 48.117667,
      "lng": 17.101693,
      "name": "Sportova hala"
    },
    "afc15b69c3404b86a48ceda8f74aee01.16": {
      "guid": "afc15b69c3404b86a48ceda8f74aee01.16",
      "lat": 48.117581,
      "lng": 17.105109,
      "name": "Ice Cream Stand"
    },
    "e924596dde9540e58a5c72a9621b8f8a.16": {
      "guid": "e924596dde9540e58a5c72a9621b8f8a.16",
      "lat": 48.117293,
      "lng": 17.103922,
      "name": "Cik Cak Centrum"
    },
    "11fa91105e8343299a990fca6a6867ff.12": {
      "guid": "11fa91105e8343299a990fca6a6867ff.12",
      "lat": 48.119934,
      "lng": 17.116113,
      "name": "Venusa"
    },
    "94ceec614afa4277b2717d614dc6581b.16": {
      "guid": "94ceec614afa4277b2717d614dc6581b.16",
      "lat": 48.121553,
      "lng": 17.098872,
      "name": "iron art in railway station"
    },
    "9fb211b321d144f7a7beddaf6a6a113a.16": {
      "guid": "9fb211b321d144f7a7beddaf6a6a113a.16",
      "lat": 48.128263,
      "lng": 17.099384,
      "name": "Kaplnka Na Daliborovom "
    },
    "e7efe9bb3e8a407caa8b5dfd2c48cba5.16": {
      "guid": "e7efe9bb3e8a407caa8b5dfd2c48cba5.16",
      "lat": 48.127578,
      "lng": 17.0994,
      "name": "Fitness na námestíčku"
    },
    "410f6f79017b48399cf00a4bf7ce1366.11": {
      "guid": "410f6f79017b48399cf00a4bf7ce1366.11",
      "lat": 48.121233,
      "lng": 17.101157,
      "name": "Freedom Sculpture, Bratislava"
    },
    "974c49aff8f94c50bd0d46e8998678f7.16": {
      "guid": "974c49aff8f94c50bd0d46e8998678f7.16",
      "lat": 48.125285,
      "lng": 17.108093,
      "name": "Lanova preliezka"
    },
    "5a5b86c1e73b4ac3bbc3ceb792f1c986.16": {
      "guid": "5a5b86c1e73b4ac3bbc3ceb792f1c986.16",
      "lat": 48.136667,
      "lng": 17.107669,
      "name": "Barbarossa In Jail"
    },
    "9ab6f972653c4433b9040add996295b5.16": {
      "guid": "9ab6f972653c4433b9040add996295b5.16",
      "lat": 48.133734,
      "lng": 17.108583,
      "name": "Protinapoleonsky Val"
    },
    "e042a422c7fd46ebafd0fabf5f17075c.16": {
      "guid": "e042a422c7fd46ebafd0fabf5f17075c.16",
      "lat": 48.133387,
      "lng": 17.103108,
      "name": "Klin v strome"
    },
    "557a337bdd7849098fc62ff61906b368.16": {
      "guid": "557a337bdd7849098fc62ff61906b368.16",
      "lat": 48.132786,
      "lng": 17.101643,
      "name": "Muz Na Strome "
    },
    "e03295a5ce664c70a2b672a0a5180ff4.16": {
      "guid": "e03295a5ce664c70a2b672a0a5180ff4.16",
      "lat": 48.136774,
      "lng": 17.109429,
      "name": "Au Cafe"
    },
    "e57693a4f63646df99f2530c959bcfb1.11": {
      "guid": "e57693a4f63646df99f2530c959bcfb1.11",
      "lat": 48.134248,
      "lng": 17.11126,
      "name": "Baran "
    },
    "d7d8bfb1dd54412c8470e26e0293a3fe.16": {
      "guid": "d7d8bfb1dd54412c8470e26e0293a3fe.16",
      "lat": 48.134408,
      "lng": 17.108207,
      "name": "Blizenci (Gemini)"
    },
    "947e296efc4d44e29f8ad32c6e79c102.16": {
      "guid": "947e296efc4d44e29f8ad32c6e79c102.16",
      "lat": 48.135912,
      "lng": 17.10489,
      "name": "Bratislava Emblem by Lubica Cvengrosova"
    },
    "a3207689376f40a38b4dbf3f6d9212c3.16": {
      "guid": "a3207689376f40a38b4dbf3f6d9212c3.16",
      "lat": 48.136965,
      "lng": 17.105563,
      "name": "Bratislava Grafity"
    },
    "bf6af023b4924981acd2a0f6d147cc39.16": {
      "guid": "bf6af023b4924981acd2a0f6d147cc39.16",
      "lat": 48.136396,
      "lng": 17.104497,
      "name": "Bratislava Znak"
    },
    "4cc7fb5dfd0c4e0680e8100fd4ec5ec0.11": {
      "guid": "4cc7fb5dfd0c4e0680e8100fd4ec5ec0.11",
      "lat": 48.134281,
      "lng": 17.109295,
      "name": "Byk (Taurus)"
    },
    "ea4a733bbc0247ceb6cb994ad048ea49.16": {
      "guid": "ea4a733bbc0247ceb6cb994ad048ea49.16",
      "lat": 48.13596,
      "lng": 17.107598,
      "name": "Detska Zahrada"
    },
    "8e22d00aeb4143aebd5e5495e6e12371.11": {
      "guid": "8e22d00aeb4143aebd5e5495e6e12371.11",
      "lat": 48.135779,
      "lng": 17.115117,
      "name": "Divadlo Aréna Tower"
    },
    "f40b5f69ea6d40db80bf896a91a88c18.16": {
      "guid": "f40b5f69ea6d40db80bf896a91a88c18.16",
      "lat": 48.135135,
      "lng": 17.104095,
      "name": "fakla mieru"
    },
    "727d48c102d541c2a026f0a249a1f218.11": {
      "guid": "727d48c102d541c2a026f0a249a1f218.11",
      "lat": 48.13614,
      "lng": 17.106574,
      "name": "Flower Statue In Sad Janka Krala"
    },
    "86f1c1db1e144e33b00b191a16058e12.16": {
      "guid": "86f1c1db1e144e33b00b191a16058e12.16",
      "lat": 48.132244,
      "lng": 17.100905,
      "name": "Incheba Expo"
    },
    "21213f17aab347dba993bedcc26dd704.16": {
      "guid": "21213f17aab347dba993bedcc26dd704.16",
      "lat": 48.133649,
      "lng": 17.113498,
      "name": "Kozorozec"
    },
    "248ab5eeb35a4b05a9d12f0f3cfcabb0.16": {
      "guid": "248ab5eeb35a4b05a9d12f0f3cfcabb0.16",
      "lat": 48.135092,
      "lng": 17.107048,
      "name": "Lev (Leo)"
    },
    "8b1be41247d4439ba6197a58c204b7bb.11": {
      "guid": "8b1be41247d4439ba6197a58c204b7bb.11",
      "lat": 48.136046,
      "lng": 17.11277,
      "name": "Mierove Zmluvy"
    },
    "dc1277fab65f4cf0b1262ea539b13a49.16": {
      "guid": "dc1277fab65f4cf0b1262ea539b13a49.16",
      "lat": 48.135195,
      "lng": 17.109955,
      "name": "Pamatnik Slovenskeho Vystahovalectva"
    },
    "90a028ac054a426680101ed67d59f232.16": {
      "guid": "90a028ac054a426680101ed67d59f232.16",
      "lat": 48.1336,
      "lng": 17.108774,
      "name": "Park Entrance"
    },
    "34b92f95f5194e98ba0531ddaed19f37.16": {
      "guid": "34b92f95f5194e98ba0531ddaed19f37.16",
      "lat": 48.133298,
      "lng": 17.112083,
      "name": "Prvé Rozarium "
    },
    "cbe91b78333f4c70a9156915bade6f86.16": {
      "guid": "cbe91b78333f4c70a9156915bade6f86.16",
      "lat": 48.134817,
      "lng": 17.107836,
      "name": "Rak Sculpture"
    },
    "8ddfd11875304d718ff0e18c4883baf5.16": {
      "guid": "8ddfd11875304d718ff0e18c4883baf5.16",
      "lat": 48.134381,
      "lng": 17.103579,
      "name": "Rezbar"
    },
    "721c931b49994e7cb700c0166db70d1d.16": {
      "guid": "721c931b49994e7cb700c0166db70d1d.16",
      "lat": 48.133914,
      "lng": 17.111801,
      "name": "Ryby "
    },
    "0e267d7396584b958b33b47df5b7d881.11": {
      "guid": "0e267d7396584b958b33b47df5b7d881.11",
      "lat": 48.134983,
      "lng": 17.113645,
      "name": "Scorpion"
    },
    "5dbffcb0186748a3b9279af2937be21a.11": {
      "guid": "5dbffcb0186748a3b9279af2937be21a.11",
      "lat": 48.134594,
      "lng": 17.113937,
      "name": "Strelec"
    },
    "e5faebcfa5d44ae98ab99cd8f4c2659a.16": {
      "guid": "e5faebcfa5d44ae98ab99cd8f4c2659a.16",
      "lat": 48.132839,
      "lng": 17.102052,
      "name": "Umenie Meca "
    },
    "3b65a433fdaf44079619ff7a3a980500.16": {
      "guid": "3b65a433fdaf44079619ff7a3a980500.16",
      "lat": 48.133594,
      "lng": 17.105464,
      "name": "Aupark Bridge "
    },
    "673464a26915418da4690507aa342116.16": {
      "guid": "673464a26915418da4690507aa342116.16",
      "lat": 48.136074,
      "lng": 17.101575,
      "name": "Tabuľa Bratislavské luhy"
    },
    "bb895555666648f899985a207f3fa6c9.16": {
      "guid": "bb895555666648f899985a207f3fa6c9.16",
      "lat": 48.134758,
      "lng": 17.100034,
      "name": "plamen incheba"
    },
    "6c0a9ec5fc9344378df563e36cc347ea.11": {
      "guid": "6c0a9ec5fc9344378df563e36cc347ea.11",
      "lat": 48.133631,
      "lng": 17.112704,
      "name": "Vodnár"
    },
    "e1992fa892a04a96bfec08d93cbb6cae.16": {
      "guid": "e1992fa892a04a96bfec08d93cbb6cae.16",
      "lat": 48.136722,
      "lng": 17.106016,
      "name": "Žlty Bike"
    },
    "0015cb4c0d3c44d28a298a0659a93dc1.16": {
      "guid": "0015cb4c0d3c44d28a298a0659a93dc1.16",
      "lat": 48.135522,
      "lng": 17.104307,
      "name": "Statue of Mamooth"
    },
    "bec3e6b6cc324b6e9fb9fb3f01001fbc.11": {
      "guid": "bec3e6b6cc324b6e9fb9fb3f01001fbc.11",
      "lat": 48.135939,
      "lng": 17.117005,
      "name": "Starý Most"
    },
    "a4699febfd3249cbaca5af17cf0726d4.16": {
      "guid": "a4699febfd3249cbaca5af17cf0726d4.16",
      "lat": 48.139711,
      "lng": 17.117223,
      "name": "Pamiatka na Stary most"
    },
    "0c2d982fd51f413eaae0a44371fb97c0.16": {
      "guid": "0c2d982fd51f413eaae0a44371fb97c0.16",
      "lat": 48.139822,
      "lng": 17.115565,
      "name": "Game Place"
    },
    "1f3e8226744c4396b3b4f342b0853180.16": {
      "guid": "1f3e8226744c4396b3b4f342b0853180.16",
      "lat": 48.140038,
      "lng": 17.113933,
      "name": "Zip it! "
    },
    "1a2462d335bb4dd291256984f37c7284.16": {
      "guid": "1a2462d335bb4dd291256984f37c7284.16",
      "lat": 48.126709,
      "lng": 17.113105,
      "name": "Veľké Ihrisko Vavilovova"
    },
    "f344bfbf6da948f1b8c57196b9112204.16": {
      "guid": "f344bfbf6da948f1b8c57196b9112204.16",
      "lat": 48.127646,
      "lng": 17.117049,
      "name": "Delfínoraptor"
    },
    "4c09155899284dbcbc5f64e92717db07.16": {
      "guid": "4c09155899284dbcbc5f64e92717db07.16",
      "lat": 48.129484,
      "lng": 17.115465,
      "name": "Ihrisko Muchovo Námestie"
    },
    "b532315c55404536a8d0136c981eee0b.16": {
      "guid": "b532315c55404536a8d0136c981eee0b.16",
      "lat": 48.128578,
      "lng": 17.117831,
      "name": "Detské Ihrisko Bosákova I"
    },
    "6ce511efb3a044f79580e95c2da74126.16": {
      "guid": "6ce511efb3a044f79580e95c2da74126.16",
      "lat": 48.129414,
      "lng": 17.118135,
      "name": "Detské Ihrisko Jantárova"
    },
    "3e45655575f54837856fa79b68a24dbf.16": {
      "guid": "3e45655575f54837856fa79b68a24dbf.16",
      "lat": 48.127564,
      "lng": 17.118956,
      "name": "Graffiti Panda"
    },
    "67596e934f66480c8cafb2cea0843d1d.11": {
      "guid": "67596e934f66480c8cafb2cea0843d1d.11",
      "lat": 48.127485,
      "lng": 17.119641,
      "name": "Mini Playground"
    },
    "9f9c9b53dd624b74851f75a284209f40.16": {
      "guid": "9f9c9b53dd624b74851f75a284209f40.16",
      "lat": 48.12677,
      "lng": 17.118922,
      "name": "Chorvátske Rameno"
    },
    "f4c442d5dff048b39522a7c9125fe741.16": {
      "guid": "f4c442d5dff048b39522a7c9125fe741.16",
      "lat": 48.13054,
      "lng": 17.1126,
      "name": "Freedom Forever Paint"
    },
    "107ccbb663ea42f8a14f4db35d650edb.16": {
      "guid": "107ccbb663ea42f8a14f4db35d650edb.16",
      "lat": 48.129492,
      "lng": 17.111119,
      "name": "Ihrisko Černyševského"
    },
    "55a37f04651641d895fd685c9bb9c677.16": {
      "guid": "55a37f04651641d895fd685c9bb9c677.16",
      "lat": 48.133153,
      "lng": 17.108263,
      "name": "Aupark Fountain"
    },
    "a34077e2bff3481d8b3b9c051bafe1e9.16": {
      "guid": "a34077e2bff3481d8b3b9c051bafe1e9.16",
      "lat": 48.136603,
      "lng": 17.112978,
      "name": "Playwatch"
    },
    "d239bc3964dd4454a684b9dcaa32a3e8.16": {
      "guid": "d239bc3964dd4454a684b9dcaa32a3e8.16",
      "lat": 48.127925,
      "lng": 17.073756,
      "name": "Muzeum infotabula"
    },
    "64a9e65c602a46018bdd6257e6c40c8b.16": {
      "guid": "64a9e65c602a46018bdd6257e6c40c8b.16",
      "lat": 48.126871,
      "lng": 17.073207,
      "name": "Muzeum Petrsalskeho Opevnenia"
    },
    "a87272e30bbc4584a920c86d5c8ca352.16": {
      "guid": "a87272e30bbc4584a920c86d5c8ca352.16",
      "lat": 48.128827,
      "lng": 17.111648,
      "name": "Multifunkčné Ihrisko Mánesko"
    },
    "3331d84217174851bae286e314dece12.16": {
      "guid": "3331d84217174851bae286e314dece12.16",
      "lat": 48.127623,
      "lng": 17.110988,
      "name": "Detské Ihrisko Farského 1"
    },
    "535adc72a63b4c4f8ded66faff7a7245.16": {
      "guid": "535adc72a63b4c4f8ded66faff7a7245.16",
      "lat": 48.128627,
      "lng": 17.120387,
      "name": "Detské ihrisko Albero"
    },
    "e14f2fdb9b0b4d609363edb7bc093994.16": {
      "guid": "e14f2fdb9b0b4d609363edb7bc093994.16",
      "lat": 48.128598,
      "lng": 17.118607,
      "name": "Fuxova"
    },
    "74c03477cccb48a59e003cc24d0cce3e.16": {
      "guid": "74c03477cccb48a59e003cc24d0cce3e.16",
      "lat": 48.128936,
      "lng": 17.121518,
      "name": "Toro Chan"
    },
    "98cb3e14514a4bc4b14dcbc980e52bd2.16": {
      "guid": "98cb3e14514a4bc4b14dcbc980e52bd2.16",
      "lat": 48.129544,
      "lng": 17.122325,
      "name": "Iron Shield"
    },
    "49741438569e4544baea0a8a4fa7e219.16": {
      "guid": "49741438569e4544baea0a8a4fa7e219.16",
      "lat": 48.129738,
      "lng": 17.123299,
      "name": "Socha Psa"
    },
    "8881a48216bc490c89f8dc125dea94c7.16": {
      "guid": "8881a48216bc490c89f8dc125dea94c7.16",
      "lat": 48.127393,
      "lng": 17.122453,
      "name": "Old Playground Bosáková"
    },
    "91bcb1b2fdaa4184a86dfde10a047d35.16": {
      "guid": "91bcb1b2fdaa4184a86dfde10a047d35.16",
      "lat": 48.124277,
      "lng": 17.113379,
      "name": "Cowboys"
    },
    "141c71456555410bb04548bd5043ae79.16": {
      "guid": "141c71456555410bb04548bd5043ae79.16",
      "lat": 48.127992,
      "lng": 17.122201,
      "name": "Železná Smrtka"
    },
    "c8f118874eef4445bc1e48192976ff1c.16": {
      "guid": "c8f118874eef4445bc1e48192976ff1c.16",
      "lat": 48.127977,
      "lng": 17.122581,
      "name": "Železná Harfa"
    },
    "8ffae28a9bf744828ab79b8cbc626ac8.16": {
      "guid": "8ffae28a9bf744828ab79b8cbc626ac8.16",
      "lat": 48.128465,
      "lng": 17.122889,
      "name": "Fontana - Anjeli Na Slimakoch"
    },
    "620c818382e74965b4c17a229c0a3839.16": {
      "guid": "620c818382e74965b4c17a229c0a3839.16",
      "lat": 48.128944,
      "lng": 17.12283,
      "name": "Ihrisko Lužná"
    },
    "178f38cc2e374b8ca0baac4027cbb97d.16": {
      "guid": "178f38cc2e374b8ca0baac4027cbb97d.16",
      "lat": 48.128088,
      "lng": 17.12411,
      "name": "Graffiti Lekáreň"
    },
    "83ea4176023444019938f8e42cac0031.16": {
      "guid": "83ea4176023444019938f8e42cac0031.16",
      "lat": 48.128866,
      "lng": 17.126913,
      "name": "Ihrisko"
    },
    "fbf0c0a622cb43109b5b7b142378f50a.16": {
      "guid": "fbf0c0a622cb43109b5b7b142378f50a.16",
      "lat": 48.130238,
      "lng": 17.131752,
      "name": "Ohnivá Gorila Mural"
    },
    "9f8360248f544dedb0f15930e772d50f.16": {
      "guid": "9f8360248f544dedb0f15930e772d50f.16",
      "lat": 48.13138,
      "lng": 17.134645,
      "name": "Graffiti FOX"
    },
    "0973f24987c54ea9805898c5adec5ad3.16": {
      "guid": "0973f24987c54ea9805898c5adec5ad3.16",
      "lat": 48.131562,
      "lng": 17.133461,
      "name": "Graffiti Birds on a Wire"
    },
    "f09cde15a10f4f61a7bb2f212b3977d2.16": {
      "guid": "f09cde15a10f4f61a7bb2f212b3977d2.16",
      "lat": 48.127147,
      "lng": 17.129061,
      "name": "Ihrisko Pre Postihnutých - Blagoevova"
    },
    "875a5f7b152d4d7e8cf4cc2e76a11de3.16": {
      "guid": "875a5f7b152d4d7e8cf4cc2e76a11de3.16",
      "lat": 48.127402,
      "lng": 17.131778,
      "name": "Obchodna Fakulta EUBA"
    },
    "1ff4e99e00de4388991190a096ba5660.16": {
      "guid": "1ff4e99e00de4388991190a096ba5660.16",
      "lat": 48.127509,
      "lng": 17.134453,
      "name": "Slavia"
    },
    "77676a7a25374390aefad9d33d1fbaf9.16": {
      "guid": "77676a7a25374390aefad9d33d1fbaf9.16",
      "lat": 48.126245,
      "lng": 17.131908,
      "name": "Leziaci Panak"
    },
    "bd91339f43224e89b29c490c2f1204a2.16": {
      "guid": "bd91339f43224e89b29c490c2f1204a2.16",
      "lat": 48.125776,
      "lng": 17.134443,
      "name": "tenisak"
    },
    "124b21e42764492ca87eb3e985fe69d5.16": {
      "guid": "124b21e42764492ca87eb3e985fe69d5.16",
      "lat": 48.126154,
      "lng": 17.130575,
      "name": "Malba Mural"
    },
    "530cb966eaa342749c039c5103344417.16": {
      "guid": "530cb966eaa342749c039c5103344417.16",
      "lat": 48.125503,
      "lng": 17.130768,
      "name": "Prazdroj Plzen"
    },
    "78a62e04061148658d85ba092b52d65f.16": {
      "guid": "78a62e04061148658d85ba092b52d65f.16",
      "lat": 48.125774,
      "lng": 17.128443,
      "name": "Pamätná Tabuľa Ján Bulík"
    },
    "0c5cc22c77794701bf2d3ad7f3b24f98.16": {
      "guid": "0c5cc22c77794701bf2d3ad7f3b24f98.16",
      "lat": 48.125679,
      "lng": 17.127589,
      "name": "Hokejbal Saleziáni"
    },
    "8f4df93098d44a55a42d75d1e8191f2b.16": {
      "guid": "8f4df93098d44a55a42d75d1e8191f2b.16",
      "lat": 48.12525,
      "lng": 17.12927,
      "name": "Detské ihrisko Bulíkova"
    },
    "d7e2d1d6c3504fc2ac7bc87e382219bb.16": {
      "guid": "d7e2d1d6c3504fc2ac7bc87e382219bb.16",
      "lat": 48.1238,
      "lng": 17.133265,
      "name": "Porsche Info Stojan"
    },
    "b730973475b543eb8e90bcac0399f29f.16": {
      "guid": "b730973475b543eb8e90bcac0399f29f.16",
      "lat": 48.123405,
      "lng": 17.133553,
      "name": "InterStorko"
    },
    "067c1b9dc4e14487a23a7155803d5b42.16": {
      "guid": "067c1b9dc4e14487a23a7155803d5b42.16",
      "lat": 48.124089,
      "lng": 17.131426,
      "name": "Minion Mamateyova"
    },
    "f868e393dbc64d00ac868337d890ef8a.16": {
      "guid": "f868e393dbc64d00ac868337d890ef8a.16",
      "lat": 48.125511,
      "lng": 17.124959,
      "name": "Ihrisko Saleziáni Petržalka"
    },
    "546589590c604ea1998e6c7e59766c64.16": {
      "guid": "546589590c604ea1998e6c7e59766c64.16",
      "lat": 48.124987,
      "lng": 17.126141,
      "name": "Basketbal A Futbal Pri Salezianoch"
    },
    "83ad894305844ab99351db3e9eb0b833.16": {
      "guid": "83ad894305844ab99351db3e9eb0b833.16",
      "lat": 48.124825,
      "lng": 17.125769,
      "name": "Detské Ihrisko Saleziáni"
    },
    "3a326369128e4cef9e5f54bbcd490ee0.16": {
      "guid": "3a326369128e4cef9e5f54bbcd490ee0.16",
      "lat": 48.12465,
      "lng": 17.125999,
      "name": "Vrabce za plotom"
    },
    "1b0618d9214e48fba4aab806634d73cf.16": {
      "guid": "1b0618d9214e48fba4aab806634d73cf.16",
      "lat": 48.12375,
      "lng": 17.126777,
      "name": "Ihrisko P"
    },
    "c5dfec2b2a8241228151dc05e4313dd5.16": {
      "guid": "c5dfec2b2a8241228151dc05e4313dd5.16",
      "lat": 48.122979,
      "lng": 17.128311,
      "name": "Pirátsky Hrad"
    },
    "cde3749cbc03488792b9827d5832a489.16": {
      "guid": "cde3749cbc03488792b9827d5832a489.16",
      "lat": 48.123028,
      "lng": 17.129005,
      "name": "Les - Mural"
    },
    "7df757d05ef047adb03f29e6ca6e72bb.16": {
      "guid": "7df757d05ef047adb03f29e6ca6e72bb.16",
      "lat": 48.122524,
      "lng": 17.130026,
      "name": "Detské Ihrisko - Medveďovej"
    },
    "72e5983819c246f4abca40b9a510d4e5.16": {
      "guid": "72e5983819c246f4abca40b9a510d4e5.16",
      "lat": 48.121618,
      "lng": 17.130167,
      "name": "hockey playground Medveďovej"
    },
    "a611fe5d7c23461f81d6736b89ff8d80.16": {
      "guid": "a611fe5d7c23461f81d6736b89ff8d80.16",
      "lat": 48.121061,
      "lng": 17.130248,
      "name": "Zvieratkové hojdačky"
    },
    "ec7ba873b6e743d28068474105e74fe6.16": {
      "guid": "ec7ba873b6e743d28068474105e74fe6.16",
      "lat": 48.118595,
      "lng": 17.130871,
      "name": "Ihrisko Mamateyova I"
    },
    "cc4a8b856d6d476590a130ecb6d6463c.16": {
      "guid": "cc4a8b856d6d476590a130ecb6d6463c.16",
      "lat": 48.1218,
      "lng": 17.125683,
      "name": "BMX Dráha"
    },
    "7ddb114d0dac45f88bab7e6ec4aab932.16": {
      "guid": "7ddb114d0dac45f88bab7e6ec4aab932.16",
      "lat": 48.11994,
      "lng": 17.129955,
      "name": "Old Bratislava Painting"
    },
    "9ddd86b7b46c42a9a451329a0bd93aaa.16": {
      "guid": "9ddd86b7b46c42a9a451329a0bd93aaa.16",
      "lat": 48.119199,
      "lng": 17.128593,
      "name": "Outdoor Fitnes M.C. Sklodowskej"
    },
    "4205cbf7b5fd470f9009b46033414f39.16": {
      "guid": "4205cbf7b5fd470f9009b46033414f39.16",
      "lat": 48.120092,
      "lng": 17.127586,
      "name": "Ihrisko Jankolova"
    },
    "da3bf883f2cc471b85adb135219a492f.16": {
      "guid": "da3bf883f2cc471b85adb135219a492f.16",
      "lat": 48.120716,
      "lng": 17.129018,
      "name": "veľké ihrisko Jankolova"
    },
    "89a3e65f21a7404b820c929a315636e2.16": {
      "guid": "89a3e65f21a7404b820c929a315636e2.16",
      "lat": 48.1204,
      "lng": 17.129164,
      "name": "basketbal Jankolova"
    },
    "df49d589495f4a389d2518a69e5149f2.16": {
      "guid": "df49d589495f4a389d2518a69e5149f2.16",
      "lat": 48.120824,
      "lng": 17.128077,
      "name": "Petržalka Emblem"
    },
    "257661c3b028459e9c76448a84b7ddeb.16": {
      "guid": "257661c3b028459e9c76448a84b7ddeb.16",
      "lat": 48.119464,
      "lng": 17.131919,
      "name": "Hockey Club Petrzalka 2010"
    },
    "77a451fbb6e34bf2a4ad3b1fd4eaedf9.16": {
      "guid": "77a451fbb6e34bf2a4ad3b1fd4eaedf9.16",
      "lat": 48.124165,
      "lng": 17.130112,
      "name": "Detské Ihrisko Mamateyova 9/11"
    },
    "f6d8a64741d4456fa517e1e521b73993.16": {
      "guid": "f6d8a64741d4456fa517e1e521b73993.16",
      "lat": 48.124668,
      "lng": 17.129783,
      "name": "Artistic Transformer Station"
    },
    "a8356aac02ed4f348cd70eb34f82f46a.16": {
      "guid": "a8356aac02ed4f348cd70eb34f82f46a.16",
      "lat": 48.127015,
      "lng": 17.125149,
      "name": "Outside Ping-pong Playground"
    },
    "19911ed7004645559ddb6b71d4f67476.16": {
      "guid": "19911ed7004645559ddb6b71d4f67476.16",
      "lat": 48.124472,
      "lng": 17.123646,
      "name": "Detské Ihrisko Haanova 2"
    },
    "0688f6ff7020427e807a5ed077841ad6.16": {
      "guid": "0688f6ff7020427e807a5ed077841ad6.16",
      "lat": 48.12484,
      "lng": 17.123949,
      "name": "Retro Ihrisko Haanova"
    },
    "32a2bd4d66124ab19e42421b62797c59.16": {
      "guid": "32a2bd4d66124ab19e42421b62797c59.16",
      "lat": 48.126203,
      "lng": 17.122514,
      "name": "Vsemvs"
    },
    "40e1723a5f9442d59ddd8fd9a43dadcb.16": {
      "guid": "40e1723a5f9442d59ddd8fd9a43dadcb.16",
      "lat": 48.126193,
      "lng": 17.122084,
      "name": "Dúhové Schody - Mural"
    },
    "ae7e78d66c4d443c88ac7a0e5ef502e6.16": {
      "guid": "ae7e78d66c4d443c88ac7a0e5ef502e6.16",
      "lat": 48.12803,
      "lng": 17.127339,
      "name": "Kids playground - Sosnová"
    },
    "69308d776ebe4b88a29a3091a898f40d.16": {
      "guid": "69308d776ebe4b88a29a3091a898f40d.16",
      "lat": 48.125588,
      "lng": 17.121109,
      "name": "Žlté Guľky - Mural"
    },
    "fb5027eca58c4cc8a47edb23accd91ae.16": {
      "guid": "fb5027eca58c4cc8a47edb23accd91ae.16",
      "lat": 48.126487,
      "lng": 17.119207,
      "name": "Graffiti Shark"
    },
    "17d6a09caed24892a9c52e304fb6b0e7.16": {
      "guid": "17d6a09caed24892a9c52e304fb6b0e7.16",
      "lat": 48.127021,
      "lng": 17.118941,
      "name": "Graffiti Zaba"
    },
    "091dbf910346429f8d82d1bc1e7e6c62.16": {
      "guid": "091dbf910346429f8d82d1bc1e7e6c62.16",
      "lat": 48.123768,
      "lng": 17.121923,
      "name": "Library Haanova"
    },
    "9cd604c611da48b395924cc1a570a0ce.16": {
      "guid": "9cd604c611da48b395924cc1a570a0ce.16",
      "lat": 48.125363,
      "lng": 17.122745,
      "name": "Ihrisko Haanova"
    },
    "32c9fe2116eb487f9d18a0da0581d199.12": {
      "guid": "32c9fe2116eb487f9d18a0da0581d199.12",
      "lat": 48.124796,
      "lng": 17.119615,
      "name": "pár bez nosov"
    },
    "03fafdfc1bff4f378adbe3e5d073f4b7.16": {
      "guid": "03fafdfc1bff4f378adbe3e5d073f4b7.16",
      "lat": 48.124609,
      "lng": 17.117168,
      "name": "Outdoor Basketball"
    },
    "dac984f33dfc42d794873061d4fa5385.16": {
      "guid": "dac984f33dfc42d794873061d4fa5385.16",
      "lat": 48.124136,
      "lng": 17.116647,
      "name": "Ship"
    },
    "d3257f8a29f142f3a73a33a7997af6d2.12": {
      "guid": "d3257f8a29f142f3a73a33a7997af6d2.12",
      "lat": 48.124035,
      "lng": 17.119799,
      "name": "železný strom"
    },
    "e2379cd3e97e4dca9d605283a8170b21.16": {
      "guid": "e2379cd3e97e4dca9d605283a8170b21.16",
      "lat": 48.123832,
      "lng": 17.119074,
      "name": "Big Playground - Lachova"
    },
    "636885cfaab84f16bb77caa1bbefbfd7.16": {
      "guid": "636885cfaab84f16bb77caa1bbefbfd7.16",
      "lat": 48.121483,
      "lng": 17.124501,
      "name": "PumpTrack Park Info Tabuľa"
    },
    "a599f10d5ee14ec19a1e53fd66a9b1fd.16": {
      "guid": "a599f10d5ee14ec19a1e53fd66a9b1fd.16",
      "lat": 48.119754,
      "lng": 17.122825,
      "name": "Stary haj Chapel"
    },
    "10ac0c2c5d3947ec88fc52a8a0f970d4.16": {
      "guid": "10ac0c2c5d3947ec88fc52a8a0f970d4.16",
      "lat": 48.123438,
      "lng": 17.12176,
      "name": "Tunnels"
    },
    "7b49c1b3859649aa9a37035cd323183b.16": {
      "guid": "7b49c1b3859649aa9a37035cd323183b.16",
      "lat": 48.123085,
      "lng": 17.120806,
      "name": "Library Furdekova"
    },
    "bcd27938d4cf49e79f0ac5954e2b2ee6.16": {
      "guid": "bcd27938d4cf49e79f0ac5954e2b2ee6.16",
      "lat": 48.121758,
      "lng": 17.122381,
      "name": "Mountains Painting"
    },
    "1992497c101c45a5a494bd9d413630c1.16": {
      "guid": "1992497c101c45a5a494bd9d413630c1.16",
      "lat": 48.121449,
      "lng": 17.121779,
      "name": "Detske Hasicske Auto"
    },
    "22a3c1aa79884c1a824e8d43636660cb.16": {
      "guid": "22a3c1aa79884c1a824e8d43636660cb.16",
      "lat": 48.121195,
      "lng": 17.120304,
      "name": "Hokejbal Furdekova"
    },
    "d12584833bf34507849a64671634a119.16": {
      "guid": "d12584833bf34507849a64671634a119.16",
      "lat": 48.121262,
      "lng": 17.119689,
      "name": "Bozkávajúca Žena"
    },
    "d3cd6506225a4f6fbec59b8143eb73e1.16": {
      "guid": "d3cd6506225a4f6fbec59b8143eb73e1.16",
      "lat": 48.121463,
      "lng": 17.119143,
      "name": "Štvorruká Žena"
    },
    "0e86a7cf926e42008c25f0f42cd58618.16": {
      "guid": "0e86a7cf926e42008c25f0f42cd58618.16",
      "lat": 48.121421,
      "lng": 17.117996,
      "name": "Petrzalka Foundation Stone"
    },
    "2fee08f05f7046f184ff928842eaf4ff.16": {
      "guid": "2fee08f05f7046f184ff928842eaf4ff.16",
      "lat": 48.122744,
      "lng": 17.119867,
      "name": "Old Outside Ping-Pong"
    },
    "3d6c682adb9e44e5837cbb2171e57628.16": {
      "guid": "3d6c682adb9e44e5837cbb2171e57628.16",
      "lat": 48.122362,
      "lng": 17.118628,
      "name": "Basketbalové Ihriská - Furdekova"
    },
    "b4af3ee143ca42fc98b04d87e92ce02e.16": {
      "guid": "b4af3ee143ca42fc98b04d87e92ce02e.16",
      "lat": 48.122099,
      "lng": 17.117383,
      "name": "Pamatny Stlp"
    },
    "3c65f138763b4408b35d9a6988db44c3.16": {
      "guid": "3c65f138763b4408b35d9a6988db44c3.16",
      "lat": 48.120292,
      "lng": 17.118569,
      "name": "Lepak"
    },
    "9b81be99a002455986a9a8855da938de.16": {
      "guid": "9b81be99a002455986a9a8855da938de.16",
      "lat": 48.119937,
      "lng": 17.119607,
      "name": "Pomnik Slamka"
    },
    "2dcea4671b184287b2d168d0679d2da9.16": {
      "guid": "2dcea4671b184287b2d168d0679d2da9.16",
      "lat": 48.121989,
      "lng": 17.114721,
      "name": "Painting The Peace"
    },
    "acfafd03bd404966a0b37889cf8017a1.16": {
      "guid": "acfafd03bd404966a0b37889cf8017a1.16",
      "lat": 48.121372,
      "lng": 17.113962,
      "name": "Drevená Preliezka"
    },
    "fad2df51c2e74d4daf61d30765f4d710.16": {
      "guid": "fad2df51c2e74d4daf61d30765f4d710.16",
      "lat": 48.122665,
      "lng": 17.111168,
      "name": "Ihrisko pri Ramene"
    },
    "d88a623c351e447799a8e850b7e52052.16": {
      "guid": "d88a623c351e447799a8e850b7e52052.16",
      "lat": 48.123618,
      "lng": 17.110117,
      "name": "Vývrtka"
    },
    "f5a0f0a151ac40c093b05fd841e3ca31.16": {
      "guid": "f5a0f0a151ac40c093b05fd841e3ca31.16",
      "lat": 48.118294,
      "lng": 17.12038,
      "name": "Horses Relief Art"
    },
    "9d6b13732589460ea4a1906a86ac85a0.16": {
      "guid": "9d6b13732589460ea4a1906a86ac85a0.16",
      "lat": 48.118007,
      "lng": 17.119683,
      "name": "Pod dubom"
    },
    "b9c8e20a3a534386a6a654c13fb6245c.16": {
      "guid": "b9c8e20a3a534386a6a654c13fb6245c.16",
      "lat": 48.116831,
      "lng": 17.119955,
      "name": "Colorful Playgroud"
    },
    "31488272852d4c60b2c7ab50ea882e8a.16": {
      "guid": "31488272852d4c60b2c7ab50ea882e8a.16",
      "lat": 48.115728,
      "lng": 17.122571,
      "name": "Kon"
    },
    "209f1a98a03a4266bbb22cfb6b170672.16": {
      "guid": "209f1a98a03a4266bbb22cfb6b170672.16",
      "lat": 48.113934,
      "lng": 17.123711,
      "name": "Zavodisko"
    },
    "df277fd137c04c3da0f3e4e11488b58d.16": {
      "guid": "df277fd137c04c3da0f3e4e11488b58d.16",
      "lat": 48.117687,
      "lng": 17.118221,
      "name": "Grafity Typek"
    },
    "04b7dd1931ff4e55b77c9693ec0476e5.12": {
      "guid": "04b7dd1931ff4e55b77c9693ec0476e5.12",
      "lat": 48.117553,
      "lng": 17.117365,
      "name": "Zlty kvet"
    },
    "a3d3cb07106e438cae9a6841dd1e0977.11": {
      "guid": "a3d3cb07106e438cae9a6841dd1e0977.11",
      "lat": 48.115686,
      "lng": 17.118971,
      "name": "Black Tree"
    },
    "4535aa9cf272459f8dec49bc7994f8e0.16": {
      "guid": "4535aa9cf272459f8dec49bc7994f8e0.16",
      "lat": 48.115637,
      "lng": 17.118144,
      "name": "Anchor"
    },
    "2fabb76a41ef43bb847647888abcdc03.16": {
      "guid": "2fabb76a41ef43bb847647888abcdc03.16",
      "lat": 48.115497,
      "lng": 17.116858,
      "name": "Blue Horse"
    },
    "fd25e289bd26411f88aa7024ec8713b7.16": {
      "guid": "fd25e289bd26411f88aa7024ec8713b7.16",
      "lat": 48.112736,
      "lng": 17.091718,
      "name": "Pruzinove Auto"
    },
    "03ed1d88fb1242db9a119ac4c2d124fb.16": {
      "guid": "03ed1d88fb1242db9a119ac4c2d124fb.16",
      "lat": 48.10919,
      "lng": 17.095029,
      "name": "M-Castle"
    },
    "4fc411d5c07c4bb38ac10ba15acdf312.16": {
      "guid": "4fc411d5c07c4bb38ac10ba15acdf312.16",
      "lat": 48.106902,
      "lng": 17.09253,
      "name": "Taliansko"
    },
    "0d26bf68329c48d4b48c15e70f0bb972.16": {
      "guid": "0d26bf68329c48d4b48c15e70f0bb972.16",
      "lat": 48.117508,
      "lng": 17.088397,
      "name": "Petrzalka Cemetery"
    },
    "de49a31cf0f54840a524be6cf2086526.16": {
      "guid": "de49a31cf0f54840a524be6cf2086526.16",
      "lat": 48.113641,
      "lng": 17.099007,
      "name": "Koník na strune"
    },
    "48c5e64e83584128a76d04b56b3005c0.11": {
      "guid": "48c5e64e83584128a76d04b56b3005c0.11",
      "lat": 48.111401,
      "lng": 17.101406,
      "name": "Kamenné Torzo"
    },
    "2a693dcf2e714b6a90f5d33bc4d90708.16": {
      "guid": "2a693dcf2e714b6a90f5d33bc4d90708.16",
      "lat": 48.109817,
      "lng": 17.099559,
      "name": "Pneumatikove Steny"
    },
    "8fb1d4421e3643ac96683a17f2688954.16": {
      "guid": "8fb1d4421e3643ac96683a17f2688954.16",
      "lat": 48.109068,
      "lng": 17.099842,
      "name": "Basketbalové ihrisko - Budatínska"
    },
    "d6e97ced732e4aee80e4e1ec23c15795.16": {
      "guid": "d6e97ced732e4aee80e4e1ec23c15795.16",
      "lat": 48.110129,
      "lng": 17.101964,
      "name": "Fitness zóna"
    },
    "3226440535e2460f84900f9304f15cd6.16": {
      "guid": "3226440535e2460f84900f9304f15cd6.16",
      "lat": 48.114533,
      "lng": 17.114814,
      "name": "ihrisko"
    },
    "7c83a189dce249e2b4f791c23612f382.16": {
      "guid": "7c83a189dce249e2b4f791c23612f382.16",
      "lat": 48.114058,
      "lng": 17.115417,
      "name": "Smile Kopec"
    },
    "7381c285b5bf4405a08c6a702a5a331a.16": {
      "guid": "7381c285b5bf4405a08c6a702a5a331a.16",
      "lat": 48.114185,
      "lng": 17.112827,
      "name": "Insno Graffiti "
    },
    "e8542e664ac24b6d98eabf90e7552139.16": {
      "guid": "e8542e664ac24b6d98eabf90e7552139.16",
      "lat": 48.113394,
      "lng": 17.110999,
      "name": "Puzzle Brick"
    },
    "20a98f89aee3496aafb5f3a78fc66fd5.16": {
      "guid": "20a98f89aee3496aafb5f3a78fc66fd5.16",
      "lat": 48.112929,
      "lng": 17.109955,
      "name": "Detské ihrisko - Rovniankova"
    },
    "20e333aa3215404e8b51004c32306a93.16": {
      "guid": "20e333aa3215404e8b51004c32306a93.16",
      "lat": 48.112418,
      "lng": 17.106832,
      "name": "Jan Pavol 2"
    },
    "26723bb67e684a67b3f9fb68e954cb22.16": {
      "guid": "26723bb67e684a67b3f9fb68e954cb22.16",
      "lat": 48.11227,
      "lng": 17.107448,
      "name": "Fish And Heads"
    },
    "0cd9c89134d4441ab878e835200f4edf.16": {
      "guid": "0cd9c89134d4441ab878e835200f4edf.16",
      "lat": 48.113679,
      "lng": 17.106237,
      "name": "Ihrisko"
    },
    "5051b66f46b943e18162c19941993926.16": {
      "guid": "5051b66f46b943e18162c19941993926.16",
      "lat": 48.111525,
      "lng": 17.125989,
      "name": "Cars Grafit"
    },
    "26ff7299c5824f0cbef9618235beb985.16": {
      "guid": "26ff7299c5824f0cbef9618235beb985.16",
      "lat": 48.109099,
      "lng": 17.126329,
      "name": "Graffiti podchod"
    },
    "23d740d03e3248839515060dd170ba60.16": {
      "guid": "23d740d03e3248839515060dd170ba60.16",
      "lat": 48.109461,
      "lng": 17.114812,
      "name": "Lobster Relief - Petržalka"
    },
    "a48494ed14e94033bc4ebc7b4dd067e8.16": {
      "guid": "a48494ed14e94033bc4ebc7b4dd067e8.16",
      "lat": 48.109252,
      "lng": 17.118361,
      "name": "Altánok - Malý Draždiak"
    },
    "f9dcd16d20d743aaa00c87c0d2302958.16": {
      "guid": "f9dcd16d20d743aaa00c87c0d2302958.16",
      "lat": 48.107083,
      "lng": 17.114743,
      "name": "Runnnig Table"
    },
    "14eed0b161404b0a9a5f8daa8bce99b8.16": {
      "guid": "14eed0b161404b0a9a5f8daa8bce99b8.16",
      "lat": 48.106602,
      "lng": 17.110779,
      "name": "hrad"
    },
    "62ceaf31bb9a425ba334327c9dec0c24.16": {
      "guid": "62ceaf31bb9a425ba334327c9dec0c24.16",
      "lat": 48.108374,
      "lng": 17.110436,
      "name": "UFO Playground Structure"
    },
    "4486b2b9326249288e4c6823f85f8001.16": {
      "guid": "4486b2b9326249288e4c6823f85f8001.16",
      "lat": 48.108212,
      "lng": 17.110002,
      "name": "Detske Ihrisko BA05"
    },
    "2e0fdbe5e686487985feae045ebb2e47.16": {
      "guid": "2e0fdbe5e686487985feae045ebb2e47.16",
      "lat": 48.109016,
      "lng": 17.110412,
      "name": "Dragonfly Relief"
    },
    "e0ed5f46d29540869f5a10f5dc777607.16": {
      "guid": "e0ed5f46d29540869f5a10f5dc777607.16",
      "lat": 48.109725,
      "lng": 17.109683,
      "name": "Malé Ihrisko"
    },
    "63f0a620086346c4acda0de265fefce9.16": {
      "guid": "63f0a620086346c4acda0de265fefce9.16",
      "lat": 48.107007,
      "lng": 17.108765,
      "name": "Vyschnuta Fontana"
    },
    "bba4f42d88f945ed9499d4949fe01d5f.16": {
      "guid": "bba4f42d88f945ed9499d4949fe01d5f.16",
      "lat": 48.103947,
      "lng": 17.110112,
      "name": "Detska suchacka"
    },
    "901b5938d6344c3e838e468e2abccb57.16": {
      "guid": "901b5938d6344c3e838e468e2abccb57.16",
      "lat": 48.104301,
      "lng": 17.109392,
      "name": "Tenis Centrum Akademia"
    },
    "2fc25dffbc814871a3278b59bc49a42e.16": {
      "guid": "2fc25dffbc814871a3278b59bc49a42e.16",
      "lat": 48.10573,
      "lng": 17.107789,
      "name": "Protitanková Stena"
    },
    "9d529b92992b4b0c8a5396800b7249cf.16": {
      "guid": "9d529b92992b4b0c8a5396800b7249cf.16",
      "lat": 48.109534,
      "lng": 17.105303,
      "name": "Panelakovy Hrad"
    },
    "696d55a02669459fb1b1f3bf822706fd.16": {
      "guid": "696d55a02669459fb1b1f3bf822706fd.16",
      "lat": 48.101649,
      "lng": 17.111266,
      "name": "Detske ihriska"
    },
    "eaee7de2015043b1867bca79130a16c5.16": {
      "guid": "eaee7de2015043b1867bca79130a16c5.16",
      "lat": 48.105232,
      "lng": 17.099806,
      "name": "Detské Ihrisko Budatínska 1"
    },
    "957d2bd4084c48598b7007bad35e61a5.16": {
      "guid": "957d2bd4084c48598b7007bad35e61a5.16",
      "lat": 48.103231,
      "lng": 17.106517,
      "name": "Hojdačky v kruhu"
    },
    "1cb572957cbc44d7b69670de2f1fea99.16": {
      "guid": "1cb572957cbc44d7b69670de2f1fea99.16",
      "lat": 48.100505,
      "lng": 17.112842,
      "name": "Lucky Ride"
    },
    "d497029288a748689382206eb3e33eac.16": {
      "guid": "d497029288a748689382206eb3e33eac.16",
      "lat": 48.103868,
      "lng": 17.104141,
      "name": "Detské ihrisko - Znievska "
    },
    "5254ae3d08204390937c78b1bbe6f0d4.16": {
      "guid": "5254ae3d08204390937c78b1bbe6f0d4.16",
      "lat": 48.103761,
      "lng": 17.103318,
      "name": "Park nie je smetisko"
    },
    "caa02d72971e413ab3f961953fbbe25d.16": {
      "guid": "caa02d72971e413ab3f961953fbbe25d.16",
      "lat": 48.101382,
      "lng": 17.104399,
      "name": "Library Lietavská"
    },
    "7de3b7346ece40b1a904a9247ca2bdbe.16": {
      "guid": "7de3b7346ece40b1a904a9247ca2bdbe.16",
      "lat": 48.103398,
      "lng": 17.098691,
      "name": "Detské Ihrisko Budatínska 16"
    },
    "8856de83ede8441cba095fd701cef546.16": {
      "guid": "8856de83ede8441cba095fd701cef546.16",
      "lat": 48.102062,
      "lng": 17.099287,
      "name": "Detské ihrisko - Budatínska"
    },
    "52d51f6ec51d49209fc119c0e097afdf.16": {
      "guid": "52d51f6ec51d49209fc119c0e097afdf.16",
      "lat": 48.10152,
      "lng": 17.101681,
      "name": "Povrazova Preliezka"
    },
    "c4421f29d0ec4617b99a98cf36eab267.16": {
      "guid": "c4421f29d0ec4617b99a98cf36eab267.16",
      "lat": 48.099965,
      "lng": 17.101181,
      "name": "Prvá Bratislavská Pekárenská"
    },
    "bd415df5e6ba4d2796948399cc20b52f.16": {
      "guid": "bd415df5e6ba4d2796948399cc20b52f.16",
      "lat": 48.099325,
      "lng": 17.10482,
      "name": "Outdoorove ihrisko - Lietavská"
    },
    "e6665c2a525540dabc002f1b4fac0623.16": {
      "guid": "e6665c2a525540dabc002f1b4fac0623.16",
      "lat": 48.09885,
      "lng": 17.105395,
      "name": "Pinpongovy stôl"
    },
    "42903a6d2d2f4542996faddc630949e4.11": {
      "guid": "42903a6d2d2f4542996faddc630949e4.11",
      "lat": 48.098016,
      "lng": 17.104352,
      "name": "Betónové Kvety"
    },
    "027064cd65ca4f599e3e4684d401b693.16": {
      "guid": "027064cd65ca4f599e3e4684d401b693.16",
      "lat": 48.099133,
      "lng": 17.102929,
      "name": "Mini Skate park BAZEN"
    },
    "994dc66c93f24885a593d1c178a7b807.16": {
      "guid": "994dc66c93f24885a593d1c178a7b807.16",
      "lat": 48.096866,
      "lng": 17.102548,
      "name": "Drevené ihrisko - Vyšehradská"
    },
    "d509921fc1fc455b8038e642dd4133a1.16": {
      "guid": "d509921fc1fc455b8038e642dd4133a1.16",
      "lat": 48.097501,
      "lng": 17.105581,
      "name": "Ihrisko Jama"
    },
    "f48ed0e3de2441d9bf41b414bfee2a52.16": {
      "guid": "f48ed0e3de2441d9bf41b414bfee2a52.16",
      "lat": 48.0969,
      "lng": 17.106583,
      "name": "Areál Športu JAMA"
    },
    "093216a7559d4748aa8450161f83800c.11": {
      "guid": "093216a7559d4748aa8450161f83800c.11",
      "lat": 48.097925,
      "lng": 17.106801,
      "name": "Volejbalisti"
    },
    "2ff9410abdb04917b76d02c3fa179cd6.16": {
      "guid": "2ff9410abdb04917b76d02c3fa179cd6.16",
      "lat": 48.097731,
      "lng": 17.107697,
      "name": "Kremienok A Chocholusik"
    },
    "c3b59c37cd754ce5bd4896080c7cb30b.16": {
      "guid": "c3b59c37cd754ce5bd4896080c7cb30b.16",
      "lat": 48.097895,
      "lng": 17.10826,
      "name": "DK Luky"
    },
    "af3eda0343e44e54ad30b823a35b4fdb.16": {
      "guid": "af3eda0343e44e54ad30b823a35b4fdb.16",
      "lat": 48.098046,
      "lng": 17.108566,
      "name": "Kubko"
    },
    "05e9911e4a3d44c88f5707dec72821f1.16": {
      "guid": "05e9911e4a3d44c88f5707dec72821f1.16",
      "lat": 48.096218,
      "lng": 17.105099,
      "name": "Basketbalové ihrisko - Jama"
    },
    "1775f4fbd6dd440f995c4152dcf86f74.16": {
      "guid": "1775f4fbd6dd440f995c4152dcf86f74.16",
      "lat": 48.095577,
      "lng": 17.10484,
      "name": "Stone Amfiteáter"
    },
    "4c7ca25714b44a5f89331d8329e5741c.16": {
      "guid": "4c7ca25714b44a5f89331d8329e5741c.16",
      "lat": 48.099095,
      "lng": 17.112152,
      "name": "Výhonok"
    },
    "6b108903a6694c66803c022eadf012f2.16": {
      "guid": "6b108903a6694c66803c022eadf012f2.16",
      "lat": 48.098204,
      "lng": 17.111539,
      "name": "Chef at the Corner "
    },
    "c5d4f2c9c98b43389a39630bbc63d17d.16": {
      "guid": "c5d4f2c9c98b43389a39630bbc63d17d.16",
      "lat": 48.097767,
      "lng": 17.113031,
      "name": "Playground Krasnohorska"
    },
    "33c4db7f3fc940c19d77a223b0d331b4.11": {
      "guid": "33c4db7f3fc940c19d77a223b0d331b4.11",
      "lat": 48.097102,
      "lng": 17.112766,
      "name": "Zamyslená"
    },
    "f6c6d3850d32493498de654cc232a7df.16": {
      "guid": "f6c6d3850d32493498de654cc232a7df.16",
      "lat": 48.096632,
      "lng": 17.111968,
      "name": "Butterfly Painting "
    },
    "50f55574f7684f9e8b4ca4e9be58ff9a.16": {
      "guid": "50f55574f7684f9e8b4ca4e9be58ff9a.16",
      "lat": 48.097648,
      "lng": 17.111656,
      "name": "Graffiti"
    },
    "48da4e5ece3e4102923402628015f577.16": {
      "guid": "48da4e5ece3e4102923402628015f577.16",
      "lat": 48.095672,
      "lng": 17.112318,
      "name": "Basket ihrisko"
    },
    "b377c71455cc4476ad4a3615a8c4ab92.16": {
      "guid": "b377c71455cc4476ad4a3615a8c4ab92.16",
      "lat": 48.095487,
      "lng": 17.112743,
      "name": "Detské ihrisko Jasovská "
    },
    "9129dd03687b4a3f87efbb018e4d256f.16": {
      "guid": "9129dd03687b4a3f87efbb018e4d256f.16",
      "lat": 48.096175,
      "lng": 17.114056,
      "name": "Bazén Graffiti "
    },
    "15294f1fddac47359104b981f06f62ab.16": {
      "guid": "15294f1fddac47359104b981f06f62ab.16",
      "lat": 48.098541,
      "lng": 17.118692,
      "name": "Detske ihrisko Bzovicka"
    },
    "6f6d7b30276f4bc3b2f3a1f1c832d3e8.16": {
      "guid": "6f6d7b30276f4bc3b2f3a1f1c832d3e8.16",
      "lat": 48.094821,
      "lng": 17.115751,
      "name": "Hojdací kohút"
    },
    "0f1f20b7ffd344039668a1a1e261c6eb.16": {
      "guid": "0f1f20b7ffd344039668a1a1e261c6eb.16",
      "lat": 48.095695,
      "lng": 17.118289,
      "name": "Ihrisko"
    },
    "82c32491d8dc4b76bf1e02444bf495e6.16": {
      "guid": "82c32491d8dc4b76bf1e02444bf495e6.16",
      "lat": 48.083541,
      "lng": 17.12349,
      "name": "Bathroom Graffiti "
    },
    "fbc09c446278494b998603ce560949f9.16": {
      "guid": "fbc09c446278494b998603ce560949f9.16",
      "lat": 48.102213,
      "lng": 17.117958,
      "name": "Sv. Cyril sv. Metód"
    },
    "9404da3d1fb94db1a6c0e8531392837b.16": {
      "guid": "9404da3d1fb94db1a6c0e8531392837b.16",
      "lat": 48.102796,
      "lng": 17.115699,
      "name": "Detské ihrisko - Antolská"
    },
    "cbd7368aa158464c876b06a1cbd69294.16": {
      "guid": "cbd7368aa158464c876b06a1cbd69294.16",
      "lat": 48.098524,
      "lng": 17.121328,
      "name": "White Dove"
    },
    "4624aec86a1e4667b02f9778af6019a5.16": {
      "guid": "4624aec86a1e4667b02f9778af6019a5.16",
      "lat": 48.107406,
      "lng": 17.101038,
      "name": "Volaky Graffiti"
    },
    "30d960f505cb4061959ee3924773d9f5.16": {
      "guid": "30d960f505cb4061959ee3924773d9f5.16",
      "lat": 48.10683,
      "lng": 17.10165,
      "name": "Miniplayground III"
    },
    "a26f966f863f402fb8fa5eab810b6e7a.16": {
      "guid": "a26f966f863f402fb8fa5eab810b6e7a.16",
      "lat": 48.106356,
      "lng": 17.103642,
      "name": "Mini Playgound 2"
    },
    "412aa1fa11204975b33ace9abac6cf3a.16": {
      "guid": "412aa1fa11204975b33ace9abac6cf3a.16",
      "lat": 48.108211,
      "lng": 17.119291,
      "name": "Mokrade a ich flóra-Malý Draždiak"
    },
    "c09f262da18d4a4690f9e9ad4919c0ec.16": {
      "guid": "c09f262da18d4a4690f9e9ad4919c0ec.16",
      "lat": 48.107644,
      "lng": 17.120842,
      "name": "Fauna"
    },
    "3cf78cf8d50b494fa781d8b3a1e0ebc2.16": {
      "guid": "3cf78cf8d50b494fa781d8b3a1e0ebc2.16",
      "lat": 48.1079,
      "lng": 17.080678,
      "name": "Vojenský cintorín (Military cemetery)"
    },
    "5a17a95137f24725ad16f8874483d1c1.16": {
      "guid": "5a17a95137f24725ad16f8874483d1c1.16",
      "lat": 48.103541,
      "lng": 17.084388,
      "name": "Pamatnik Zavrazdenenu"
    },
    "2eebd28fee4c4bd89ad0dd3c0b64755b.16": {
      "guid": "2eebd28fee4c4bd89ad0dd3c0b64755b.16",
      "lat": 48.104381,
      "lng": 17.084739,
      "name": "Hranicny bunker"
    },
    "5de52543858d4e6a857254e64b76b1b7.16": {
      "guid": "5de52543858d4e6a857254e64b76b1b7.16",
      "lat": 48.099364,
      "lng": 17.130612,
      "name": "Cerpacia Stanica Petrzalka"
    },
    "389af4c5e49a47aa8677a54b759f0082.16": {
      "guid": "389af4c5e49a47aa8677a54b759f0082.16",
      "lat": 48.138081,
      "lng": 17.074903,
      "name": "Eurovelo. Iron Curtain Trail Sign"
    },
    "19e812d05ba04a4780311b6653637b05.16": {
      "guid": "19e812d05ba04a4780311b6653637b05.16",
      "lat": 48.136844,
      "lng": 17.108414,
      "name": "J.Nepomucky"
    },
    "aee6aa8cd09b4b5db700ea1fc122dbcd.16": {
      "guid": "aee6aa8cd09b4b5db700ea1fc122dbcd.16",
      "lat": 48.136961,
      "lng": 17.10781,
      "name": "River's Club"
    },
    "c24abf500ccb43c5940464e980687833.16": {
      "guid": "c24abf500ccb43c5940464e980687833.16",
      "lat": 48.135598,
      "lng": 17.128096,
      "name": "Apollo Bridge"
    },
    "5a5f54d51ea54b4994284267f5b67813.16": {
      "guid": "5a5f54d51ea54b4994284267f5b67813.16",
      "lat": 48.138588,
      "lng": 17.128504,
      "name": "Bratislava City"
    },
    "b328127234694debb92e6ac25bcbf4ef.16": {
      "guid": "b328127234694debb92e6ac25bcbf4ef.16",
      "lat": 48.138754,
      "lng": 17.129375,
      "name": "Kotva Pamiatka"
    },
    "430592c6bc1d45afba757e4f8a5f5f56.16": {
      "guid": "430592c6bc1d45afba757e4f8a5f5f56.16",
      "lat": 48.140261,
      "lng": 17.128293,
      "name": "Port Entrance"
    },
    "ff53fe26257b4ae5b242b860f6f2f35d.16": {
      "guid": "ff53fe26257b4ae5b242b860f6f2f35d.16",
      "lat": 48.142201,
      "lng": 17.126617,
      "name": "Panorama City Towers"
    },
    "ae70c9c93b0545c8a752ee3d9054ef33.16": {
      "guid": "ae70c9c93b0545c8a752ee3d9054ef33.16",
      "lat": 48.141669,
      "lng": 17.126624,
      "name": "Železný Strom"
    },
    "2060255b22e94627aa6cd449916bb871.16": {
      "guid": "2060255b22e94627aa6cd449916bb871.16",
      "lat": 48.139922,
      "lng": 17.123653,
      "name": "Magician Sculpture"
    },
    "9d7cf32d0a9a497bad7b2afe8b8ff2be.16": {
      "guid": "9d7cf32d0a9a497bad7b2afe8b8ff2be.16",
      "lat": 48.139545,
      "lng": 17.122674,
      "name": "Ret as Pool Guard"
    },
    "465fde390e0e49ccb599326a7f2c8d6f.16": {
      "guid": "465fde390e0e49ccb599326a7f2c8d6f.16",
      "lat": 48.140564,
      "lng": 17.123668,
      "name": "Second Tower"
    },
    "1bc2d75aa6e04fefb7e29f930c7829d4.11": {
      "guid": "1bc2d75aa6e04fefb7e29f930c7829d4.11",
      "lat": 48.141746,
      "lng": 17.123241,
      "name": "Veza SND"
    },
    "bcf019846f6c4184bc0fe332fe148910.11": {
      "guid": "bcf019846f6c4184bc0fe332fe148910.11",
      "lat": 48.141249,
      "lng": 17.122405,
      "name": "SND"
    },
    "241ba007c0f14cce85e9fc3ac8488f91.16": {
      "guid": "241ba007c0f14cce85e9fc3ac8488f91.16",
      "lat": 48.140322,
      "lng": 17.121791,
      "name": "Woman Sculpture Art"
    },
    "1d853cba35a04371ab359fdec3e59e82.11": {
      "guid": "1d853cba35a04371ab359fdec3e59e82.11",
      "lat": 48.140934,
      "lng": 17.118557,
      "name": "Ministerstvo Vnútra"
    },
    "76fea461cc214f5a978532eec917d382.16": {
      "guid": "76fea461cc214f5a978532eec917d382.16",
      "lat": 48.139963,
      "lng": 17.118866,
      "name": "New Child Playground of Bratislava"
    },
    "f1d0bf75ec2f4f2c899b18383cdc63a6.11": {
      "guid": "f1d0bf75ec2f4f2c899b18383cdc63a6.11",
      "lat": 48.14067,
      "lng": 17.120027,
      "name": "Eurovea Galleria"
    },
    "e96e11f0a2bf4a18bfa78e8bc4f800e8.16": {
      "guid": "e96e11f0a2bf4a18bfa78e8bc4f800e8.16",
      "lat": 48.140721,
      "lng": 17.119816,
      "name": "Iron Sculpture"
    },
    "d6460aa36da84bf48371bc8fd41923df.16": {
      "guid": "d6460aa36da84bf48371bc8fd41923df.16",
      "lat": 48.140134,
      "lng": 17.117237,
      "name": "Muzeum Colnictva"
    },
    "1ace4a1e31f04340b8d3e913d28c3b87.16": {
      "guid": "1ace4a1e31f04340b8d3e913d28c3b87.16",
      "lat": 48.140089,
      "lng": 17.116452,
      "name": "Former Goverment Building"
    },
    "829373de25524cbd9692d30a074ac7ff.16": {
      "guid": "829373de25524cbd9692d30a074ac7ff.16",
      "lat": 48.140307,
      "lng": 17.114148,
      "name": "Detske Muzeum"
    },
    "2f87f32471bb49ddbd12d953ac7a6275.16": {
      "guid": "2f87f32471bb49ddbd12d953ac7a6275.16",
      "lat": 48.130212,
      "lng": 17.095986,
      "name": "Basketbalové ihrisko Pečnianska"
    },
    "cf43e5893d3d4f7ea5332745d655b5ac.16": {
      "guid": "cf43e5893d3d4f7ea5332745d655b5ac.16",
      "lat": 48.139949,
      "lng": 17.112973,
      "name": "Fontana Dom Lodnikov"
    },
    "6ae88777172e4b0da1739c98df4ed620.16": {
      "guid": "6ae88777172e4b0da1739c98df4ed620.16",
      "lat": 48.140349,
      "lng": 17.112095,
      "name": "Hrdzava Kotva"
    },
    "42e834ae39604b50bdc47d3934dc5b85.12": {
      "guid": "42e834ae39604b50bdc47d3934dc5b85.12",
      "lat": 48.139895,
      "lng": 17.111203,
      "name": "Pamatnik padlych vojakov"
    },
    "a1d05435554c4e27a1215b65f93f4def.16": {
      "guid": "a1d05435554c4e27a1215b65f93f4def.16",
      "lat": 48.140252,
      "lng": 17.111375,
      "name": "Oskar Nedbal"
    },
    "51ef463d81db4e8aa7b87ff4a2b318b4.12": {
      "guid": "51ef463d81db4e8aa7b87ff4a2b318b4.12",
      "lat": 48.140164,
      "lng": 17.109865,
      "name": "Štúrovci"
    },
    "76fff5b836cf4cfaa76aea0ca28909df.16": {
      "guid": "76fff5b836cf4cfaa76aea0ca28909df.16",
      "lat": 48.139697,
      "lng": 17.109675,
      "name": "Bronzový model Bratislavy"
    },
    "5676f1229f3740388a90385629e1e649.16": {
      "guid": "5676f1229f3740388a90385629e1e649.16",
      "lat": 48.140308,
      "lng": 17.107749,
      "name": "Big Red Arrow"
    },
    "a514f965a3ba481eb95e3f4b9ea7bc07.16": {
      "guid": "a514f965a3ba481eb95e3f4b9ea7bc07.16",
      "lat": 48.140623,
      "lng": 17.110339,
      "name": "Slovenská Filharmónia Plaketa"
    },
    "bedf7509e3194bf88418ec384f4e0e7b.16": {
      "guid": "bedf7509e3194bf88418ec384f4e0e7b.16",
      "lat": 48.140916,
      "lng": 17.111459,
      "name": "Secesny Dom  1908"
    },
    "b8e6ff83611040dfbe7012dde74112f4.16": {
      "guid": "b8e6ff83611040dfbe7012dde74112f4.16",
      "lat": 48.140432,
      "lng": 17.109643,
      "name": "SNG"
    },
    "14ad2645a09943c78c90ee19fbbe2349.16": {
      "guid": "14ad2645a09943c78c90ee19fbbe2349.16",
      "lat": 48.139608,
      "lng": 17.10794,
      "name": "Gracia"
    },
    "43cb39b534fb4b49b56767ad4b29bea4.16": {
      "guid": "43cb39b534fb4b49b56767ad4b29bea4.16",
      "lat": 48.139675,
      "lng": 17.107196,
      "name": "Pomnik Martina Razusa"
    },
    "c8fd88b6b72f463db1fc6296ceb3c420.16": {
      "guid": "c8fd88b6b72f463db1fc6296ceb3c420.16",
      "lat": 48.140989,
      "lng": 17.104913,
      "name": "Face"
    },
    "666dd3d8cb28451687d45f3b11d081c2.12": {
      "guid": "666dd3d8cb28451687d45f3b11d081c2.12",
      "lat": 48.140575,
      "lng": 17.105288,
      "name": "Trinitas - Rybne Namestie"
    },
    "0ffed88c6299419a9e4a259be5c91b0d.16": {
      "guid": "0ffed88c6299419a9e4a259be5c91b0d.16",
      "lat": 48.140021,
      "lng": 17.104724,
      "name": "Graffiti Night"
    },
    "f6fce45cdfb64a9ba2ba43cf814c1e67.16": {
      "guid": "f6fce45cdfb64a9ba2ba43cf814c1e67.16",
      "lat": 48.140186,
      "lng": 17.104149,
      "name": "New Bridge Graffity"
    },
    "4fdae293092a444f8396fdd541c64503.16": {
      "guid": "4fdae293092a444f8396fdd541c64503.16",
      "lat": 48.139667,
      "lng": 17.103216,
      "name": "Pontonovy Most Pamatnik"
    },
    "ff6a9a85878a466580847213f6d8403e.16": {
      "guid": "ff6a9a85878a466580847213f6d8403e.16",
      "lat": 48.141625,
      "lng": 17.103735,
      "name": "zajko"
    },
    "334b121bb0704113b1a13b844e34296b.16": {
      "guid": "334b121bb0704113b1a13b844e34296b.16",
      "lat": 48.141641,
      "lng": 17.103434,
      "name": "sheppard house"
    },
    "c0a16441b12446ff8bd85c631c6744e4.16": {
      "guid": "c0a16441b12446ff8bd85c631c6744e4.16",
      "lat": 48.14212,
      "lng": 17.103433,
      "name": "Cicero"
    },
    "6623dca79fd14692998b17a5c8017f50.12": {
      "guid": "6623dca79fd14692998b17a5c8017f50.12",
      "lat": 48.142272,
      "lng": 17.103939,
      "name": "Beblaveho Street"
    },
    "18ddd2b2d7614182b20f0d1f592a7be9.16": {
      "guid": "18ddd2b2d7614182b20f0d1f592a7be9.16",
      "lat": 48.142629,
      "lng": 17.103694,
      "name": "Cafe Schlossberg"
    },
    "0bdfc7553dcc4c82939aad037bd8e794.16": {
      "guid": "0bdfc7553dcc4c82939aad037bd8e794.16",
      "lat": 48.14302,
      "lng": 17.102842,
      "name": "Havraní bratia a Medúza"
    },
    "255c6099ad284e47ba31e261c1d8256e.16": {
      "guid": "255c6099ad284e47ba31e261c1d8256e.16",
      "lat": 48.143403,
      "lng": 17.100674,
      "name": "Hlavná Fontána v Záhrade "
    },
    "8c507b4eabe84825a002ac516e41e492.16": {
      "guid": "8c507b4eabe84825a002ac516e41e492.16",
      "lat": 48.142945,
      "lng": 17.100936,
      "name": "Fontana Vlevo"
    },
    "868c182ab9d6432e926c90dc29c3186c.16": {
      "guid": "868c182ab9d6432e926c90dc29c3186c.16",
      "lat": 48.143336,
      "lng": 17.102066,
      "name": "Areál Bratislavského Hradu"
    },
    "05883fae1854472ab079bf04b5f4a3b1.16": {
      "guid": "05883fae1854472ab079bf04b5f4a3b1.16",
      "lat": 48.142354,
      "lng": 17.101637,
      "name": "Castle well"
    },
    "986ec75c94274aa7bb60e8ec80413109.12": {
      "guid": "986ec75c94274aa7bb60e8ec80413109.12",
      "lat": 48.14214,
      "lng": 17.102213,
      "name": "Alzbeta Durinska"
    },
    "637ca7b735a040e18f51b79f40ddb52d.16": {
      "guid": "637ca7b735a040e18f51b79f40ddb52d.16",
      "lat": 48.142129,
      "lng": 17.10115,
      "name": "Velkomoravska Bazilika"
    },
    "1a41d3bf52e948d9b5bda0ae4fdbb2df.12": {
      "guid": "1a41d3bf52e948d9b5bda0ae4fdbb2df.12",
      "lat": 48.141778,
      "lng": 17.102323,
      "name": "Balls of Steel"
    },
    "62e96c836ff4496bbd91cb5faad8e243.16": {
      "guid": "62e96c836ff4496bbd91cb5faad8e243.16",
      "lat": 48.14166,
      "lng": 17.101861,
      "name": "Kristus pod hradom"
    },
    "1cb323b15f3545b09ebeb331d2e077c8.16": {
      "guid": "1cb323b15f3545b09ebeb331d2e077c8.16",
      "lat": 48.141269,
      "lng": 17.102309,
      "name": "Zigmundova Brana"
    },
    "fc26a6110551415fb697ef5882732d6e.16": {
      "guid": "fc26a6110551415fb697ef5882732d6e.16",
      "lat": 48.141684,
      "lng": 17.099702,
      "name": "Víťazná Brana"
    },
    "47c5242bd3a7411d8d5e5fd2e19d22da.16": {
      "guid": "47c5242bd3a7411d8d5e5fd2e19d22da.16",
      "lat": 48.1419,
      "lng": 17.099698,
      "name": "Castle Courtyard"
    },
    "a34aea195a70482e973009058739fa66.16": {
      "guid": "a34aea195a70482e973009058739fa66.16",
      "lat": 48.142061,
      "lng": 17.098592,
      "name": "castle entrance tower"
    },
    "f34d69be7f9c4375af4772bcfadc8de6.16": {
      "guid": "f34d69be7f9c4375af4772bcfadc8de6.16",
      "lat": 48.141701,
      "lng": 17.098487,
      "name": "Parlamentka"
    },
    "17b8d43482334d688139a246220027b1.16": {
      "guid": "17b8d43482334d688139a246220027b1.16",
      "lat": 48.139695,
      "lng": 17.099921,
      "name": "Historické Bicykle "
    },
    "0d6d742a56db4019a6147ddb5368f11c.16": {
      "guid": "0d6d742a56db4019a6147ddb5368f11c.16",
      "lat": 48.13985,
      "lng": 17.098599,
      "name": "J.A. Segner"
    },
    "4267c5b13d054210ae2f7bd1d986bb3d.16": {
      "guid": "4267c5b13d054210ae2f7bd1d986bb3d.16",
      "lat": 48.140219,
      "lng": 17.098639,
      "name": "Stiefel an der Wand"
    },
    "d38864c5b3ca4440aee9286d3f9a0217.16": {
      "guid": "d38864c5b3ca4440aee9286d3f9a0217.16",
      "lat": 48.140564,
      "lng": 17.098029,
      "name": "Archeologicke Muzeum"
    },
    "e985a44a277b459db216d13f9574b6ef.16": {
      "guid": "e985a44a277b459db216d13f9574b6ef.16",
      "lat": 48.140107,
      "lng": 17.097561,
      "name": "Vchod Do Kostolnej Záhrady"
    },
    "81bce943982e47579da7a7948dc7b92c.16": {
      "guid": "81bce943982e47579da7a7948dc7b92c.16",
      "lat": 48.1406,
      "lng": 17.09702,
      "name": "Muzeum Kultury Madarskych Spoluobcanov"
    },
    "247078c90b4a4cbc85dc8f95734249bb.16": {
      "guid": "247078c90b4a4cbc85dc8f95734249bb.16",
      "lat": 48.141403,
      "lng": 17.096076,
      "name": "zuckermandels history"
    },
    "2f1aab8b44a041378cb9c4e4c32e3521.16": {
      "guid": "2f1aab8b44a041378cb9c4e4c32e3521.16",
      "lat": 48.141666,
      "lng": 17.095112,
      "name": "castle rocks flora"
    },
    "b875ddffd5864a5e83eabfa4b20088c6.16": {
      "guid": "b875ddffd5864a5e83eabfa4b20088c6.16",
      "lat": 48.140212,
      "lng": 17.094853,
      "name": "Samuel Mikovini"
    },
    "675994fd576a453f92adc454ff3809e2.16": {
      "guid": "675994fd576a453f92adc454ff3809e2.16",
      "lat": 48.140874,
      "lng": 17.094621,
      "name": "Hlavy"
    },
    "6c2709a62a0444bab6241878563741d6.16": {
      "guid": "6c2709a62a0444bab6241878563741d6.16",
      "lat": 48.14145,
      "lng": 17.093881,
      "name": "Divna piecka na kolesach"
    },
    "f72f13b300b8459db80ee54e7d6c3167.16": {
      "guid": "f72f13b300b8459db80ee54e7d6c3167.16",
      "lat": 48.141317,
      "lng": 17.092978,
      "name": "Ihrisko Žižkova"
    },
    "e6266d15d14847cabfc898f3acc8c243.16": {
      "guid": "e6266d15d14847cabfc898f3acc8c243.16",
      "lat": 48.14194,
      "lng": 17.093214,
      "name": "Mozaika na Žižkovej"
    },
    "d8b563d3f8af4258bb92a70cd536aa36.11": {
      "guid": "d8b563d3f8af4258bb92a70cd536aa36.11",
      "lat": 48.140687,
      "lng": 17.092505,
      "name": "Architekt"
    },
    "7a9cea080686481b9f28c74da8d05852.12": {
      "guid": "7a9cea080686481b9f28c74da8d05852.12",
      "lat": 48.140693,
      "lng": 17.092001,
      "name": "River Park Statue"
    },
    "52b213002b934740bb4526b932a116d4.16": {
      "guid": "52b213002b934740bb4526b932a116d4.16",
      "lat": 48.140783,
      "lng": 17.091559,
      "name": "Farebne Drevo"
    },
    "4eb70301b16a4f1b8cc088b61a74f6da.16": {
      "guid": "4eb70301b16a4f1b8cc088b61a74f6da.16",
      "lat": 48.140978,
      "lng": 17.090967,
      "name": "Modry Maco"
    },
    "9e1a08e9bde54750ba0926d3c90856c0.11": {
      "guid": "9e1a08e9bde54750ba0926d3c90856c0.11",
      "lat": 48.141251,
      "lng": 17.091293,
      "name": "Shark Sculpture"
    },
    "9e7e56828ab64b9192b4e2281eb6619a.16": {
      "guid": "9e7e56828ab64b9192b4e2281eb6619a.16",
      "lat": 48.141386,
      "lng": 17.09,
      "name": "Socha"
    },
    "99a7f78a8a464ca5b91b518d535af0bb.16": {
      "guid": "99a7f78a8a464ca5b91b518d535af0bb.16",
      "lat": 48.141563,
      "lng": 17.089536,
      "name": "Zrkadlenie"
    },
    "2e7bc07d16034c7b92a4475b09bc8e0c.16": {
      "guid": "2e7bc07d16034c7b92a4475b09bc8e0c.16",
      "lat": 48.142848,
      "lng": 17.090296,
      "name": "Mikulašsky cintorin Chapel"
    },
    "a33d8539773d477db729269103c34f3b.16": {
      "guid": "a33d8539773d477db729269103c34f3b.16",
      "lat": 48.142058,
      "lng": 17.090372,
      "name": "New Apostolic Church"
    },
    "2645011e9c554e6788a2bae96ae707c4.16": {
      "guid": "2645011e9c554e6788a2bae96ae707c4.16",
      "lat": 48.141888,
      "lng": 17.091582,
      "name": "Chatam Sofer"
    },
    "8370bded95a945b5b4e83b99c0458c89.11": {
      "guid": "8370bded95a945b5b4e83b99c0458c89.11",
      "lat": 48.141666,
      "lng": 17.088888,
      "name": "Glittering Cow"
    },
    "66be8dee296849a5b1674a434e51af91.16": {
      "guid": "66be8dee296849a5b1674a434e51af91.16",
      "lat": 48.141583,
      "lng": 17.088084,
      "name": "orientacna mapa river parku"
    },
    "a60e8ca5137b442badde83e8c287f9e4.16": {
      "guid": "a60e8ca5137b442badde83e8c287f9e4.16",
      "lat": 48.141828,
      "lng": 17.086559,
      "name": "Apaticky oranzovy konik"
    },
    "d00605e8c6d34da6b3ec48a5b06b99ad.16": {
      "guid": "d00605e8c6d34da6b3ec48a5b06b99ad.16",
      "lat": 48.143791,
      "lng": 17.085725,
      "name": "Socha V Kríkoch"
    },
    "4fca5cbc906a484e9b35090eaa6b2029.16": {
      "guid": "4fca5cbc906a484e9b35090eaa6b2029.16",
      "lat": 48.142241,
      "lng": 17.089109,
      "name": "Mother with Child"
    },
    "5cb1bb5ba6664f11af1ba56e60211f92.16": {
      "guid": "5cb1bb5ba6664f11af1ba56e60211f92.16",
      "lat": 48.121253,
      "lng": 17.11625,
      "name": "Podmorský život - Mural"
    },
    "a5809b5f3d97444dbbe663f5f2ee4adc.16": {
      "guid": "a5809b5f3d97444dbbe663f5f2ee4adc.16",
      "lat": 48.139393,
      "lng": 17.12447,
      "name": "Small Dome"
    },
    "3a8179bad0e74ee08dee755ef2328bc7.16": {
      "guid": "3a8179bad0e74ee08dee755ef2328bc7.16",
      "lat": 48.122091,
      "lng": 17.096286,
      "name": "Šmýkačka na Údernickej"
    },
    "7fed443f9fce403b8537742f0df222b5.16": {
      "guid": "7fed443f9fce403b8537742f0df222b5.16",
      "lat": 48.123768,
      "lng": 17.097585,
      "name": "Šmýkačka na Vilovej"
    },
    "256e7e0bf32343b19fdbd9b1abf5f3eb.16": {
      "guid": "256e7e0bf32343b19fdbd9b1abf5f3eb.16",
      "lat": 48.129459,
      "lng": 17.097261,
      "name": "Preliezky"
    },
    "42b112dd784944f4b1c67b638545035e.16": {
      "guid": "42b112dd784944f4b1c67b638545035e.16",
      "lat": 48.129175,
      "lng": 17.101491,
      "name": "Ihrisko pre najmenších"
    },
    "4a174249f2c444d5be29183e47add502.16": {
      "guid": "4a174249f2c444d5be29183e47add502.16",
      "lat": 48.126398,
      "lng": 17.11979,
      "name": "Celebrity"
    },
    "85c4cbb7336a4c6aa2c6e140a31aa3d1.16": {
      "guid": "85c4cbb7336a4c6aa2c6e140a31aa3d1.16",
      "lat": 48.13598,
      "lng": 17.066337,
      "name": "Bunker B-S-2"
    },
    "2fe25487021049d6b9e966c557ab58ae.16": {
      "guid": "2fe25487021049d6b9e966c557ab58ae.16",
      "lat": 48.125485,
      "lng": 17.100043,
      "name": "Drevená veža s lezeckou stenou"
    },
    "9440d1cbee084a21b2ba3c5eca908685.16": {
      "guid": "9440d1cbee084a21b2ba3c5eca908685.16",
      "lat": 48.119902,
      "lng": 17.096928,
      "name": "Sivo-modry graffit"
    },
    "a9c25721904c48faaf1cc355ac781660.16": {
      "guid": "a9c25721904c48faaf1cc355ac781660.16",
      "lat": 48.122184,
      "lng": 17.126899,
      "name": "Hokejbal Haanova"
    },
    "7891eb544bc94168a5ca995d4c42cb74.16": {
      "guid": "7891eb544bc94168a5ca995d4c42cb74.16",
      "lat": 48.114484,
      "lng": 17.093194,
      "name": "Grafity Kopčany."
    },
    "4dbffe7c6d4046d0989b0372e42a80e6.16": {
      "guid": "4dbffe7c6d4046d0989b0372e42a80e6.16",
      "lat": 48.133921,
      "lng": 17.114582,
      "name": "Park History Sign"
    },
    "b2532134674e488da851f7fbdfa76958.16": {
      "guid": "b2532134674e488da851f7fbdfa76958.16",
      "lat": 48.124704,
      "lng": 17.093544,
      "name": "Ohradene detske ihrisko Na Harmaneckej ulici"
    },
    "4feb0e415e6245aebccb57fbb4ae65b4.16": {
      "guid": "4feb0e415e6245aebccb57fbb4ae65b4.16",
      "lat": 48.122295,
      "lng": 17.062352,
      "name": "Border Stone"
    },
    "41821ea0fca448dda23a5cb46c920a56.16": {
      "guid": "41821ea0fca448dda23a5cb46c920a56.16",
      "lat": 48.121068,
      "lng": 17.130849,
      "name": "Workout na Medveďovej"
    },
    "a13b2e9deaf14503b5dc951b9ddd89d8.16": {
      "guid": "a13b2e9deaf14503b5dc951b9ddd89d8.16",
      "lat": 48.129994,
      "lng": 17.095318,
      "name": "Public Fitness Playground Pecna"
    },
    "218e1e22ab4a4d8e8b5888a7956467bd.16": {
      "guid": "218e1e22ab4a4d8e8b5888a7956467bd.16",
      "lat": 48.121687,
      "lng": 17.130519,
      "name": "Basketball court Medveďovej"
    },